id,code,port_cn_name,port_en_name,latitude,longitude,country,port_type,city,delete_flag,create_time
3,ADALV,,Andorra la Vella,42.5063174,1.5218355,Andorra,Dry Port,Andorra la Vella,0,2024/8/5 15:22
4,AFBUL,,Kabul,34.5495,69.3546,Afghanistan,Dry Port,Kabul,0,2024/8/5 15:22
5,AFHEA,,Herat,34.341944,62.203056,Afghanistan,Dry Port,Herat,0,2024/8/5 15:22
6,AFISL,,Islam Qala,34.666667,61.066667,Afghanistan,Dry Port,Islam Qala,0,2024/8/5 15:22
7,AGANT,,Antigua,17.0117502,-61.7736225,Antigua and Barbuda,Feeder Port,Antigua,0,2024/8/5 15:22
8,AGSJO,,"St John's,AG",17.1245,-61.85279,Antigua and Barbuda,Feeder Port,St John's,0,2024/8/5 15:22
9,ALDRZ,,Durres,41.30761,19.45881,Albania,Feeder Port,Durres,0,2024/8/5 15:22
10,ALSAR,,Sarande,39.866,20.004,Albania,Feeder Port,Sarande,0,2024/8/5 15:22
11,ALSHG,,Shengjin,41.810925,19.58622,Albania,Feeder Port,Shengjin,0,2024/8/5 15:22
12,ALTIA,,Tirana,41.3232,19.8193,Albania,Dry Port,Tirana,0,2024/8/5 15:22
13,ALVOA,,Vlore,40.45955,19.461335,Albania,Feeder Port,Vlore,0,2024/8/5 15:22
14,AMYER,,Yerevan,40.1763,44.5084,Armenia,Dry Port,Yerevan,0,2024/8/5 15:22
15,AOABZ,,Ambriz,-7.8634,13.1184,Angola,Feeder Port,Ambriz,0,2024/8/5 15:22
16,AOBUG,,Benguela,-12.5910001,13.3789997,Angola,Feeder Port,Benguela,0,2024/8/5 15:22
17,AOCAB,,Cabinda,-5.548245195,12.1925068,Angola,Feeder Port,Cabinda,0,2024/8/5 15:22
18,AOLAD,,Luanda,-8.783055556,13.1,Angola,Feeder Port,Luanda,0,2024/8/5 15:22
19,AOLOB,,Lobito,-12.333,13.574,Angola,Feeder Port,Lobito,0,2024/8/5 15:22
20,AOMAL,,Malongo,-5.396,12.199,Angola,Feeder Port,Malongo,0,2024/8/5 15:22
21,AOMSZ,,Namibe,-15.1925,12.1315,Angola,Feeder Port,Namibe,0,2024/8/5 15:22
22,AONDD,,Sumbe,-11.19972,13.833056,Angola,Feeder Port,Sumbe,0,2024/8/5 15:22
23,AONRE,,Novo Redondo(Sumbe),-11.33333333,13.91666667,Angola,Feeder Port,Sumbe,0,2024/8/5 15:23
24,AOPBN,,Porto Amboim,-10.73305556,13.75,Angola,Feeder Port,Porto Amboim,0,2024/8/5 15:23
25,AOPLE,,Porto Alexandre(Tombwa),-15.7989,11.83073,Angola,Feeder Port,Porto Alexandre(Tombwa),0,2024/8/5 15:23
26,AOSOY,,Soyo,-6.11667,12.3,Angola,Feeder Port,Soyo,0,2024/8/5 15:23
27,ARBHI,,Bahia Blanca,-38.79205705,-62.2707443,Argentina,Feeder Port,Bahia Blanca,0,2024/8/5 15:23
28,ARBUE,,Buenos Aires,-34.61161,-58.367685,Argentina,Main Port,Buenos Aires,0,2024/8/5 15:23
29,ARCDR,,Comodoro Rivadavia,-45.8560009,-67.46500015,Argentina,Feeder Port,Comodoro Rivadavia,0,2024/8/5 15:23
30,ARCMP,,Campana,-34.1521225,-58.95755005,Argentina,Feeder Port,Campana,0,2024/8/5 15:23
31,ARCON,,Puerto Concepcion Del Uruguay,-32.53333333,-58.21666667,Argentina,Feeder Port,Puerto Concepcion Del Uruguay,0,2024/8/5 15:23
32,ARCOR,,Cordoba,-31.4099,-64.1931,Argentina,Dry Port,Cordoba,0,2024/8/5 15:23
33,ARCVI,,Caleta Olivia,-46.4269161,-67.4754524,Argentina,Feeder Port,Caleta Olivia,0,2024/8/5 15:23
34,ARDME,,Diamante,-32.061595,-60.645945,Argentina,Feeder Port,Diamante,0,2024/8/5 15:23
35,ARIBI,,Ibicuy,-33.76333333,-59.16666667,Argentina,Feeder Port,Ibicuy,0,2024/8/5 15:23
36,ARLPG,,La Plata,-34.851,-57.8845,Argentina,Feeder Port,La Plata,0,2024/8/5 15:23
37,ARMDQ,,Mar del Plata,-38.03898,-57.52586,Argentina,Feeder Port,Mar del Plata,0,2024/8/5 15:23
38,ARMEN,,Mendoza,-32.8917,-68.8445,Argentina,Dry Port,Mendoza,0,2024/8/5 15:23
39,ARNEC,,Necochea,-38.5736,-58.714715,Argentina,Feeder Port,Necochea,0,2024/8/5 15:23
40,AROES,,San Antonio Oeste,-40.75117,-64.872225,Argentina,Feeder Port,San Antonio Oeste,0,2024/8/5 15:23
41,ARPAC,,Puerto Acevedo,-33.2525,-60.28722,Argentina,Feeder Port,Acevedo,0,2024/8/5 15:23
42,ARPCO,,Punta Colorada,-41.7,-65.038333,Argentina,Feeder Port,San Antonio Oeste,0,2024/8/5 15:23
43,ARPMY,,Puerto Madryn,-42.7475,-65.024215,Argentina,Feeder Port,Puerto Madryn,0,2024/8/5 15:23
44,ARPQU,,Punta Quilla,-50.033333,-68.416667,Argentina,Feeder Port,Punta Quilla,0,2024/8/5 15:23
45,ARPUD,,Puerto Deseado,-47.75777,-65.899855,Argentina,Feeder Port,Puerto Deseado,0,2024/8/5 15:23
46,ARQQN,,Quequen,-38.5736,-58.714715,Argentina,Feeder Port,Quequen,0,2024/8/5 15:23
47,ARRAM,,Ramallo,-33.480315,-59.99561,Argentina,Dry Port,Ramallo,0,2024/8/5 15:23
48,ARRCA,,Recalada,-37.2937,-57.0135,Argentina,Feeder Port,Mar del Plata,0,2024/8/5 15:23
49,ARRGA,,Rio Grande,-53.68333333,-67.8,Argentina,Feeder Port,Rio Grande,0,2024/8/5 15:23
50,ARRGL,,Rio Gallegos,-51.614075,-69.222025,Argentina,Feeder Port,Rio Gallegos,0,2024/8/5 15:23
51,ARROS,,Rosario,-33.016,-60.5755,Argentina,Dry Port,Rosario,0,2024/8/5 15:23
52,ARRZA,,Santa Cruz,-50.03333,-68.416667,Argentina,Feeder Port,Puerto Santa Cruz,0,2024/8/5 15:23
53,ARSAE,,San Antonio Este,-40.8161,-64.7584,Argentina,Feeder Port,San Antonio Este,0,2024/8/5 15:23
54,ARSFE,,Santa Fe,-31.642,-60.684,Argentina,Dry Port,Ciudad de Santa Fe,0,2024/8/5 15:23
55,ARSNS,,San Nicolas de Los Arroyos,-33.345865,-60.176925,Argentina,Feeder Port,San Nicolas de Los Arroyos,0,2024/8/5 15:23
56,ARSPD,,San Pedro,-33.6744976,-59.65687755,Argentina,Feeder Port,San Pedro,0,2024/8/5 15:23
57,ARSSN,,San Sebastian,-53.316667,-68.34972,Argentina,Feeder Port,San Sebastian,0,2024/8/5 15:23
58,ARULA,,San Julian,-49.30677,-67.70934,Argentina,Feeder Port,San Julian,0,2024/8/5 15:23
59,ARUSH,,Ushuaia,-54.8095,-68.2835,Argentina,Feeder Port,Ushuaia,0,2024/8/5 15:23
60,ARVCO,,Villa Constitucion,-33.2272,-60.3219,Argentina,Feeder Port,Villa Constitucion,0,2024/8/5 15:23
61,ARZAR,,Zarate,-34.087285,-59.0137,Argentina,Feeder Port,Zarate,0,2024/8/5 15:23
62,ATBRZ,,Bregenz,47.5,9.733333,Austria,Dry Port,Bregenz,0,2024/8/5 15:23
63,ATENA,,Enns,0,0,Austria,Dry Port,Enns,1,2024/8/5 15:23
64,ATGRZ,,Graz,47.0698,15.4392,Austria,Dry Port,Graz,0,2024/8/5 15:23
65,ATINN,,Innsbruck,47.2634,11.3939,Austria,Dry Port,Innsbruck,0,2024/8/5 15:23
66,ATKLU,,Klagenfurt,46.61667,14.3,Austria,Dry Port,Klagenfurt,0,2024/8/5 15:23
67,ATLNZ,,Linz,48.31307,14.313845,Austria,Feeder Port,Linz,0,2024/8/5 15:23
68,ATSTP,,Sankt Polten,48.21338,15.62394,Austria,Dry Port,Sankt Polten,0,2024/8/5 15:24
69,ATSZG,,Salzburg,47.7977,13.0418,Austria,Dry Port,Salzburg,0,2024/8/5 15:24
70,ATVEN,,Vienna,48.2343,16.4065,Austria,Dry Port,Wien,0,2024/8/5 15:24
71,ATWFT,,Wolfurt,0,0,Austria,Dry Port,Wolfurt,1,2024/8/5 15:24
72,AUABB,,Abbot Bay,-19.8655386,148.083519,Australia,Feeder Port,Abbot Bay,0,2024/8/5 15:24
73,AUADL,,Adelaide,-34.806839,138.5082015,Australia,Main Port,Adelaide,0,2024/8/5 15:24
74,AUALH,,Albany,-35.034,117.8965,Australia,Feeder Port,Albany,0,2024/8/5 15:24
75,AUARD,,"Ardrossan,AU",-34.4342403,137.9244235,Australia,Feeder Port,"Ardrossan,AU",0,2024/8/5 15:24
76,AUBAI,,Barrow Island,-20.76392,115.47515,Australia,Feeder Port,Barrow Island,0,2024/8/5 15:24
77,AUBDG,,Bundaberg,-24.76750085,152.389496,Australia,Feeder Port,Bundaberg,0,2024/8/5 15:24
78,AUBHD,,Ballast Head,-35.75,137.8,Australia,Feeder Port,Ballast Head,0,2024/8/5 15:24
79,AUBLB,,Bell Bay,-41.16015815,146.883865,Australia,Feeder Port,Bell Bay,0,2024/8/5 15:24
80,AUBNE,,Brisbane,-27.4205,153.089,Australia,Main Port,Brisbane,0,2024/8/5 15:24
81,AUBNK,,Ballina,0,0,Australia,Feeder Port,Ballina,1,2024/8/5 15:24
82,AUBOW,,Bowen,-20.02117825,148.2537155,Australia,Feeder Port,Bowen,0,2024/8/5 15:24
83,AUBRO,,Broome,-17.98976515,122.2235335,Australia,Feeder Port,Broome,0,2024/8/5 15:24
84,AUBTB,,Botany Bay,-33.973608,151.2156145,Australia,Feeder Port,Sydney,0,2024/8/5 15:24
90,CAAMH,,Amherstburg,42.0987053,-83.11707305,Canada,Feeder Port,Amherstburg,0,2024/8/5 15:45
91,CAANN,,Annapolis,44.75,-65.51666667,Canada,Feeder Port,Annapolis,0,2024/8/5 15:45
92,CAARG,,Argentia,47.29675295,-53.9859581,Canada,Feeder Port,Argentia,0,2024/8/5 15:45
93,CAARI,,Arichat,45.51666667,-61.03305556,Canada,Feeder Port,Arichat,0,2024/8/5 15:45
94,CAAST,,Amherst,47.23305556,-61.83305556,Canada,Feeder Port,Harve Aubert,0,2024/8/5 15:45
95,CABAR,,Barrie,44.371111,-79.676944,Canada,,Barrie,0,2024/8/5 15:45
96,CABAT,,Bathurst,47.61666667,-65.65,Canada,Feeder Port,Bathurst,0,2024/8/5 15:45
97,CABCO,,Baie Comeau,49.2380562,-68.13368985,Canada,Feeder Port,Baie-Comeau,0,2024/8/5 15:45
98,CABDK,,Baddeck,46.1,-60.79972222,Canada,Feeder Port,Baddeck,0,2024/8/5 15:45
99,CABEC,,Becancour,46.330123,-72.449577,Canada,Feeder Port,Becancour,0,2024/8/5 15:45
100,CABEL,,Belledune,47.910799,-65.8474884,Canada,Feeder Port,Belledune,0,2024/8/5 15:45
101,CABGO,,Burgeo,47.61278345,-57.61397745,Canada,Feeder Port,Burgeo,0,2024/8/5 15:45
102,CABLV,,Belleville,44.15600015,-77.38050075,Canada,Feeder Port,Belleville,0,2024/8/5 15:45
103,CABOT,,Botwood,49.140955,-55.34757615,Canada,Feeder Port,Botwood,0,2024/8/5 15:45
104,CABRI,,Bridgewater,44.38305556,-64.51666667,Canada,Feeder Port,Bridgewater,0,2024/8/5 15:45
105,CABRO,,Brockville(Ont.),44.5855007,-75.68500135,Canada,Feeder Port,Brockville,0,2024/8/5 15:45
106,CABRP,,"Brampton, ON",0,0,Canada,Dry Port,Brampton,1,2024/8/5 15:45
107,CABRS,,Bay Roberts,47.61666667,-53.16666667,Canada,Feeder Port,Bay Roberts,0,2024/8/5 15:45
108,CABSC,,Basques Cove,47.580698,-59.133482,Canada,Feeder Port,Basques Cove,0,2024/8/5 15:45
109,CABUC,,Buctouche,46.46666667,-64.71666667,Canada,Feeder Port,Buctouche,0,2024/8/5 15:45
110,CABVH,,Beaver Harbour,45.06666667,-66.73305556,Canada,Feeder Port,Beaver Harbour,0,2024/8/5 15:45
111,CACAL,,Calgary,51.0492,-114.0546,Canada,Dry Port,Calgary,0,2024/8/5 15:45
112,CACAM,,Campbellton,48,-66.66666667,Canada,Feeder Port,Campbellton,0,2024/8/5 15:45
113,CACAR,,Carleton,48.1636563,-66.2289982,Canada,Feeder Port,Carleton,0,2024/8/5 15:45
114,CACBC,,Come by Chance,47.80254935,-54.00741575,Canada,Feeder Port,Come by Chance,0,2024/8/5 15:45
115,CACBK,,Corner Brook,48.9592476,-57.96627045,Canada,Feeder Port,Corner Brook,0,2024/8/5 15:45
116,CACHA,,Charlottetown,46.23333333,-63.11666667,Canada,Feeder Port,Charlottetown,0,2024/8/5 15:45
117,CACHE,,Chemainus,48.91666667,-123.7,Canada,Feeder Port,Chemainus,0,2024/8/5 15:45
118,CACHI,,Chicoutimi,48.33333333,-71.1,Canada,Feeder Port,Chicoutimi,0,2024/8/5 15:45
119,CACHV,,Churchill,58.7692642,-94.19368745,Canada,Feeder Port,Churchill,0,2024/8/5 15:45
120,CACLA,,Clarenville,48.17284205,-53.9557457,Canada,Feeder Port,Clarenville,0,2024/8/5 15:46
121,CACMX,,Comox,49.83333333,-125.1166667,Canada,,Comox,0,2024/8/5 15:46
122,CACOB,,Cobourg(ONT.),43.95349885,-78.1665001,Canada,Feeder Port,Cobourg,0,2024/8/5 15:46
123,CACOL,,Collingwood,44.512001,-80.2254982,Canada,,Collingwood,0,2024/8/5 15:46
124,CACON,,Contrecoeur,45.85900115,-73.2385025,Canada,Feeder Port,Contrecoeur,0,2024/8/5 15:46
125,CACOR,,Cornwall(ONT.),45.01360895,-74.71170425,Canada,Feeder Port,Cornwall,0,2024/8/5 15:46
126,CACQT,,Caraquet,0,0,Canada,Feeder Port,Caraquet,1,2024/8/5 15:46
127,CACRO,,Crofton,48.88333333,-123.6666667,Canada,Feeder Port,Crofton,0,2024/8/5 15:46
128,CACSH,,Canso Harbour,45.3399868,-60.9980259,Canada,Feeder Port,Canso Harbour,0,2024/8/5 15:46
129,CACTH,,Country Harbour,45.13305556,-61.6830556,Canada,Feeder Port,Country Harbour,0,2024/8/5 15:46
130,CACTM,,Chatham,47.03305556,-65.46666667,Canada,Feeder Port,Chatham,0,2024/8/5 15:46
131,CACWB,,Cowichan Bay,48.75,-123.6333333,Canada,Feeder Port,Cowichan Bay,0,2024/8/5 15:46
132,CADAL,,Dalhousie,48.03333333,-66.56666667,Canada,Feeder Port,Dalhousie,0,2024/8/5 15:46
133,CADIG,,Digby,44.63333333,-65.75,Canada,Feeder Port,Digby,0,2024/8/5 15:46
134,CAEDM,,Edmonton,53.5351,-113.5078,Canada,Dry Port,Edmonton,0,2024/8/5 15:46
135,CAESQ,,Esquimalt,48.4351,-123.4283,Canada,Feeder Port,Esquimalt,0,2024/8/5 15:46
136,CAFOR,,Forestville,48.73842,-69.05096,Canada,Feeder Port,Forestville,0,2024/8/5 15:46
137,CAFRB,,Frobisher Bay,63.73305556,-68.53305556,Canada,Feeder Port,Frobisher Bay,0,2024/8/5 15:46
138,CAGAS,,Gaspe,48.83333333,-64.48333333,Canada,Feeder Port,Gaspe,0,2024/8/5 15:46
139,CAGBK,,Grand Bank,47.1,-55.75,Canada,Feeder Port,Grand Bank,0,2024/8/5 15:46
140,CAGOD,,Goderich,43.7425,-81.729,Canada,Dry Port,Goderich,0,2024/8/5 15:46
141,CAGOR,,Gold River,49.68333333,-126.1166667,Canada,Dry Port,Gold River,0,2024/8/5 15:46
142,CAGSB,,Goose Bay,53.36666667,-60.36666667,Canada,Feeder Port,Goose Bay,0,2024/8/5 15:46
143,CAHAL,,Halifax,44.66815,-63.5961,Canada,Feeder Port,Halifax,0,2024/8/5 15:46
144,CAHAM,,"Hamilton,CA",43.294,-79.829,Canada,Feeder Port,Hamilton,0,2024/8/5 15:46
145,CAHAN,,Hantsport,45.06666667,-64.16666667,Canada,Feeder Port,Hantsport,0,2024/8/5 15:46
146,CAHGR,,Harbour Grace,47.689885,-53.217775,Canada,Feeder Port,Harbour Grace,0,2024/8/5 15:46
147,CAHOL,,Holyrood,47.38333333,-53.13333333,Canada,Feeder Port,Holyrood,0,2024/8/5 15:46
148,CAHSP,,Haver St.Pierre,50.2452,-63.5962,Canada,Feeder Port,Haver St.Pierre,0,2024/8/5 15:46
149,CAINA,,Iona,45.96666667,-60.8,Canada,Feeder Port,Iona,0,2024/8/5 15:46
150,CAKIN,,"Kingston,CA",44.235,-76.496,Canada,Dry Port,Kingston,0,2024/8/5 15:46
151,CAKIT,,Kitimat,53.99514,-128.686,Canada,Feeder Port,Kitimat,0,2024/8/5 15:46
152,CAKTC,,Kitchener,0,0,Canada,Dry Port,Kitchener,1,2024/8/5 15:46
153,CALAH,,La Have,44.23333333,-64.38333333,Canada,Feeder Port,La Have,0,2024/8/5 15:46
154,CALEA,,Leamington,42.025745,-82.60019,Canada,Feeder Port,Leamington,0,2024/8/5 15:46
155,CALIV,,Liverpool,44.0375,-64.71388889,Canada,Feeder Port,Liverpool,0,2024/8/5 15:46
156,CALNA,,Little Narrows,46.0019,-60.9583,Canada,Feeder Port,Little Narrows,0,2024/8/5 15:46
157,CALOC,,Lockeport,43.7,-65.11666667,Canada,Feeder Port,Lockeport,0,2024/8/5 15:47
158,CALOU,,Louisburg,45.9224,-59.9728,Canada,,Louisburg,0,2024/8/5 15:47
159,CALUN,,Lunenburg,44.38333333,-64.31666667,Canada,,Lunenburg,0,2024/8/5 15:47
160,CAMAT,,Matane,48.841875,-67.574615,Canada,Feeder Port,Matane,0,2024/8/5 15:47
161,CAMET,,Meteghan,44.2330556,-66.15,Canada,Feeder Port,Meteghan,0,2024/8/5 15:47
162,CAMIC,,Michipicoten(Ont.),47.9,-84.9,Canada,Feeder Port,Michipicoten,0,2024/8/5 15:47
163,CAMID,,Midland(Ont.),44.758,-79.869,Canada,Dry Port,Midland,0,2024/8/5 15:47
164,CAMIS,,Mississauga,43.5908,-79.6488,Canada,Feeder Port,Mississauga,0,2024/8/5 15:47
165,CAMKH,,Markham,43.8807177,-79.3695781,Canada,Feeder Port,Markham,0,2024/8/5 15:47
166,CAMLS,,Mont Louis,49.233056,-65.733056,Canada,Feeder Port,Mont Louis,0,2024/8/5 15:47
167,CAMNT,,Moncton,46.08776,-64.7776,Canada,Feeder Port,Moncton,0,2024/8/5 15:47
168,CAMON,,Montague,46.16666667,-62.63333333,Canada,Feeder Port,Montague,0,2024/8/5 15:47
169,CAMTR,,Montreal,45.55701,-73.516735,Canada,Main Port,Montreal,0,2024/8/5 15:47
170,CANGL,,New Glasgow,45.6,-62.6667,Canada,Feeder Port,New Glasgow,0,2024/8/5 15:47
171,CANNO,,Nanaimo,49.139945,-123.85255,Canada,Feeder Port,Nanaimo,0,2024/8/5 15:47
172,CANRI,,New Richmond,48.16667,-65.9,Canada,,New Richmond,0,2024/8/5 15:47
173,CANSY,,North Sydney,46.20771,-60.245685,Canada,Feeder Port,North Sydney,0,2024/8/5 15:47
174,CANWE,,New Westminster,49.1945,-122.898,Canada,Feeder Port,New Westminster,0,2024/8/5 15:47
175,CAOAK,,Oakville(Ont.),43.4,-79.666667,Canada,Feeder Port,Oakville,0,2024/8/5 15:47
176,CAOFS,,Ocean Falls,52.350075,-127.69525,Canada,Feeder Port,Ocean Falls,0,2024/8/5 15:47
177,CAOSD,,Owen Sound,44.5815,-80.9375,Canada,Feeder Port,Owen Sound,0,2024/8/5 15:47
178,CAOSH,,Oshawa(Ont.),43.86666667,-78.83305556,Canada,Feeder Port,Oshawa,0,2024/8/5 15:47
179,CAOTT,,Ottawa,45.3722,-75.8003,Canada,Dry Port,Ottawa,0,2024/8/5 15:47
180,CAPAB,,Port Alberni,49.2295,-124.8195,Canada,Feeder Port,Port Alberni,0,2024/8/5 15:47
181,CAPAD,,"Port Alfred,CA",48.334815,-70.87337,Canada,Feeder Port,La Baie,0,2024/8/5 15:47
182,CAPAE,,Port Alice,50.36666667,-127.4666667,Canada,Feeder Port,Port Alice,0,2024/8/5 15:47
183,CAPAR,,Parrsboro,45.39972222,-64.33305556,Canada,Dry Port,Parrsboro,0,2024/8/5 15:47
184,CAPAS,,Paspebiac,48.01666667,-65.25,Canada,Feeder Port,Paspebiac,0,2024/8/5 15:47
185,CAPBH,,Peterborough,44.3152959,-78.3956137,Canada,Dry Port,Peterborough,0,2024/8/5 15:47
186,CAPCA,,Port Cartier,50.031075,-66.78452,Canada,Feeder Port,Port Cartier,0,2024/8/5 15:47
187,CAPCO,,Port Colborne,42.88137,-79.248715,Canada,Feeder Port,Port Colborne,0,2024/8/5 15:47
188,CAPDA,,Port Dalhousie,43.2,-79.26666667,Canada,,St. Catharines,0,2024/8/5 15:47
189,CAPHA,,Port Hawkesbury,45.61666667,-61.36666667,Canada,Feeder Port,Port Hawkesbury,0,2024/8/5 15:48
190,CAPHO,,Port Hope,43.9415,-78.292,Canada,,Port Hope,0,2024/8/5 15:48
191,CAPHS,,Port Hope Simpson,52.5338,-56.2788,Canada,,Port Hope Simpson,0,2024/8/5 15:48
192,CAPMU,,Port Mulgrave,45.616667,-61.4,Canada,,Mulgrave,0,2024/8/5 15:48
193,CAPNR,,Pointe Noire,50.16666667,-66.5,Canada,Feeder Port,Sept-Iles,0,2024/8/5 15:48
194,CAPOW,,Powell River,49.832445,-124.5309,Canada,Feeder Port,Powell River,0,2024/8/5 15:48
195,CAPRE,,Prescott,44.707525,-75.51331,Canada,Dry Port,Prescott,0,2024/8/5 15:48
196,CAPRG,,Prince George,53.916944,-122.749444,Canada,Dry Port,Prince George,0,2024/8/5 15:48
197,CAPRR,,Prince Rupert,54.3095,-130.3185,Canada,Main Port,Prince Rupert,0,2024/8/5 15:48
198,CAPSD,,Parry Sound,45.331,-80.0375,Canada,Feeder Port,Parry Sound,0,2024/8/5 15:48
199,CAPTA,,Tahsis,49.91666667,-126.6666667,Canada,Feeder Port,Tahsis,0,2024/8/5 15:48
200,CAPUG,,Pugwash,45.8333,-63.6667,Canada,Feeder Port,Pugwash,0,2024/8/5 15:48
201,CAPWE,,Port Weller(Ont.),43.2315,-79.214,Canada,Feeder Port,St. Catharines,0,2024/8/5 15:48
202,CAQUE,,Quebec,46.80629,-71.197775,Canada,Dry Port,Quebec,0,2024/8/5 15:48
203,CARDL,,Riviere-du-Loup,47.816667,-69.5,Canada,Dry Port,Riviere-du-Loup,0,2024/8/5 15:48
204,CAREG,,Regina,50.3753,-104.5459,Canada,Dry Port,Regina,0,2024/8/5 15:48
205,CARIC,,Richibucto,46.68905556,-64.86666667,Canada,Feeder Port,Richibucto,0,2024/8/5 15:48
206,CARIM,,Rimouski,48.478715,-68.51385,Canada,Dry Port,Rimouski,0,2024/8/5 15:48
207,CAROB,,Roberts Bank,49.027,-123.1355,Canada,Feeder Port,Vancouver,0,2024/8/5 15:48
208,CASAK,,Saskatoon,52.1537,-106.6718,Canada,Dry Port,Saskatoon,0,2024/8/5 15:48
209,CASAT,,St. Anthony,51.36667,-55.5831,Canada,Feeder Port,St. Anthony,0,2024/8/5 15:48
210,CASCA,,St. Catharines,43.16667,-79.2667,Canada,Dry Port,St. Catharines,0,2024/8/5 15:48
211,CASDC,,Shediac,46.25,-64.53333,Canada,Feeder Port,Shediac,0,2024/8/5 15:48
212,CASEI,,Sept Iles,50.197,-66.434,Canada,Feeder Port,Sept-Iles,0,2024/8/5 15:48
213,CASHE,,Shelburne(N.S.),43.633333,-65.316667,Canada,Feeder Port,Shelburne,0,2024/8/5 15:48
214,CASHI,,Shippegan,47.75,-64.7,Canada,Feeder Port,Shippegan,0,2024/8/5 15:48
215,CASJB,,Saint John,45.28,-66.06,Canada,Feeder Port,Saint John,0,2024/8/5 15:48
216,CASJF,,"St John's,CA",47.61667,-52.68333,Canada,Feeder Port,St. John's,0,2024/8/5 15:48
217,CASLA,,St. Lawrence,46.916667,-55.38333,Canada,Feeder Port,St. Lawrence,0,2024/8/5 15:48
218,CASNI,,Sarnia,42.971,-82.411,Canada,Dry Port,Sarnia,0,2024/8/5 15:48
219,CASPR,,Springdale,49.5,-56.06667,Canada,Feeder Port,Springdale,0,2024/8/5 15:48
220,CASRL,,Sorel,46.0475,-73.1155,Canada,Feeder Port,Sorel,0,2024/8/5 15:48
221,CASRS,,Souris,46.347925,-62.25083,Canada,Feeder Port,Souris,0,2024/8/5 15:48
222,CASSM,,Sault Ste Marie,46.506,-84.34,Canada,Dry Port,Sault Ste Marie,0,2024/8/5 15:48
223,CASTE,,Stephenville,48.527475,-58.528295,Canada,Feeder Port,Stephenville,0,2024/8/5 15:48
224,CASTH,,Sheet Harbour,44.83333,-62.5,Canada,Feeder Port,Sheet Harbour,0,2024/8/5 15:48
225,CASTT,,Stewart,55.920695,-129.99435,Canada,Feeder Port,Stewart,0,2024/8/5 15:48
226,CASUM,,Summerside,46.3869,-63.787805,Canada,Feeder Port,Summerside,0,2024/8/5 15:48
227,CASYD,,"Sydney,CA",46.20771,-60.245685,Canada,Feeder Port,Sydney,0,2024/8/5 15:49
228,CATAD,,Tadoussac,48.15,-69.71666667,Canada,Dry Port,Tadoussac,0,2024/8/5 15:49
229,CATDB,,Thunder Bay(ONT.),48.403,-89.215,Canada,Dry Port,Thunder Bay,0,2024/8/5 15:49
230,CATHO,,Thorold(ONT.),43.116667,-79.2,Canada,Feeder Port,Thorold,0,2024/8/5 15:49
231,CATOR,,Toronto,43.63,-79.3565,Canada,Main Port,Toronto,0,2024/8/5 15:49
232,CATRR,,Trois-Rivieres,46.335,-72.539,Canada,Feeder Port,Trois-Rivieres,0,2024/8/5 15:49
233,CATWI,,Twillingate,49.6489,-54.7637,Canada,Feeder Port,Twillingate,0,2024/8/5 15:49
234,CAVAL,,Valleyfield,45.2235,-74.095,Canada,Feeder Port,Valleyfield,0,2024/8/5 15:49
235,CAVAN,,Vancouver,49.303555,-123.0475,Canada,Main Port,Vancouver,0,2024/8/5 15:49
236,CAVIC,,"Victoria,CA",48.425,-123.3825,Canada,Feeder Port,Victoria,0,2024/8/5 15:49
237,CAWEL,,Welland(ONT.),42.9923,-79.2523,Canada,Feeder Port,Welland,0,2024/8/5 15:49
238,CAWEY,,"Weymouth,CA",44.4034,-66.0011,Canada,Feeder Port,Weymouth,0,2024/8/5 15:49
239,CAWIN,,Windsor(ONT.),42.3032,-83.0251,Canada,Dry Port,Windsor,0,2024/8/5 15:49
240,CAWNP,,Winnipeg,50,-97,Canada,Dry Port,Winnipeg,0,2024/8/5 15:49
241,CAWOO,,Woodfibre,49.6705,-123.2536,Canada,Feeder Port,Woodfibre,0,2024/8/5 15:49
242,CAWVR,,West Vancouver,49.33333,-123.15,Canada,Feeder Port,West Vancouver,0,2024/8/5 15:49
243,CAYRH,,Yarmouth,43.8316,-66.12476,Canada,Feeder Port,Yarmouth,0,2024/8/5 15:49
244,CIABJ,,Abidjan,5.2983915,-4.01993,Cote D Ivoire,Main Port,Abidjan,0,2024/8/5 15:49
245,CIGBM,,Grand Bassam,5.2116,-3.7412,Cote D Ivoire,Feeder Port,Grand Bassam,0,2024/8/5 15:49
246,CISPY,,San Pedro,4.733055556,-6.616666667,Cote D Ivoire,Feeder Port,San Pedro,0,2024/8/5 15:49
247,CITAB,,Tabou,4.4193,-7.3612,Cote D Ivoire,Feeder Port,Tabou,0,2024/8/5 15:49
248,CIZSS,,Sassandra,4.951,-6.08,Cote D Ivoire,Feeder Port,Sassandra,0,2024/8/5 15:49
249,CKARU,,Arutunga,-18.8651,-159.7976,Cook Islands,Feeder Port,Arutunga,0,2024/8/5 15:49
250,CKAVA,,Avarua,-21.2041788,-159.7844235,Cook Islands,Feeder Port,Avarua,0,2024/8/5 15:49
251,CKRAR,,Rarotonga,-21.20418,-159.7844,Cook Islands,Feeder Port,Rarotonga Island,0,2024/8/5 15:49
252,CLACD,,Ancud,-41.8654556,-73.8335037,Chile,,Ancud,0,2024/8/5 15:49
253,CLANF,,Antofagasta,-23.64972222,-70.43305556,Chile,Feeder Port,Antofagasta,0,2024/8/5 15:50
254,CLANG,,Puerto Angamos,-23.08002,-70.408435,Chile,Main Port,Mejillones,0,2024/8/5 15:50
255,CLARI,,Arica,-18.47284985,-70.32555005,Chile,Feeder Port,Arica,0,2024/8/5 15:50
256,CLCCA,,Caleta Clarencia,-52.9,-70.13333333,Chile,Feeder Port,Caleta Clarencia,0,2024/8/5 15:50
257,CLCHA,,Chacabuco,-45.4663563,-72.82174685,Chile,Feeder Port,Chacabuco,0,2024/8/5 15:50
258,CLCLA,,Calderilla,-27.0886259,-70.8525467,Chile,,Calderilla,0,2024/8/5 15:50
259,CLCLD,,"Caldera,CL",-27.05507565,-70.8251648,Chile,Feeder Port,Caldera,0,2024/8/5 15:50
260,CLCNO,,Cabo Negro,-53.01666667,-70.84972222,Chile,Feeder Port,Cabo Negro,0,2024/8/5 15:50
261,CLCNR,,Chanaral,-26.35434535,-70.63938525,Chile,Feeder Port,Chanaral,0,2024/8/5 15:50
262,CLCOR,,Coronel,-37.03499985,-73.1665001,Chile,Main Port,Coronel,0,2024/8/5 15:50
263,CLCPS,,Caleta Patillos,-20.74313735,-70.1915779,Chile,Feeder Port,Caleta Patillos,0,2024/8/5 15:50
264,CLCQQ,,Coquimbo,-29.9476509,-71.32995605,Chile,Feeder Port,Coquimbo,0,2024/8/5 15:50
265,CLEAI,,Easter Island,-27.13333333,-109.3666667,Chile,Feeder Port,Easter Island,0,2024/8/5 15:50
266,CLGRE,,San Gregorio,-52.48333333,-70.23333333,Chile,Feeder Port,San Gregorio,0,2024/8/5 15:50
267,CLGUA,,Guayacan,-29.974745,-71.35726,Chile,Feeder Port,Guayacan,0,2024/8/5 15:50
268,CLHSO,,Huasco,-28.46885,-71.24089,Chile,Feeder Port,Huasco,0,2024/8/5 15:50
269,CLIQQ,,Iquique,-20.201835,-70.15024,Chile,Main Port,Iquique,0,2024/8/5 15:50
270,CLLOT,,Lota,-37.10538,-73.159785,Chile,Feeder Port,Lota,0,2024/8/5 15:50
271,CLLQN,,Lirquen,-36.7115,-72.9945,Chile,Main Port,Lirquen,0,2024/8/5 15:50
272,CLLSE,,La Serena,-29.83333333,-71.25,Chile,Feeder Port,La Serena,0,2024/8/5 15:50
273,CLMJS,,Mejillones,-23.08002,-70.408435,Chile,Feeder Port,Mejillones,0,2024/8/5 15:50
274,CLPCO,,Penco,-36.728365,-73.0093,Chile,Feeder Port,Penco,0,2024/8/5 15:50
275,CLPMC,,Puerto Montt,-41.49836155,-72.9778633,Chile,Feeder Port,Puerto Montt,0,2024/8/5 15:50
276,CLPNA,,Puerto Natales,-51.726265,-72.51715,Chile,Feeder Port,Puerto Natales,0,2024/8/5 15:50
277,CLPQI,,Puerto Quemchi,-42.14577,-73.471615,Chile,Feeder Port,Quemchi,0,2024/8/5 15:50
278,CLPQN,,Puerto Quellon,-43.119095,-73.601835,Chile,Feeder Port,Quellon,0,2024/8/5 15:50
279,CLPUQ,,Punta Arenas,-53.1445,-70.8765,Chile,Feeder Port,Punta Arenas,0,2024/8/5 15:50
280,CLQMC,,Quemchi,-42.14577,-73.471615,Chile,Feeder Port,Quemchi,0,2024/8/5 15:50
281,CLQTV,,Quintero,-32.75757,-71.507475,Chile,Feeder Port,Quintero,0,2024/8/5 15:50
282,CLSAI,,San Antonio,-33.5875,-71.618285,Chile,Main Port,San Antonio,0,2024/8/5 15:50
283,CLSCL,,Santiago,-33.4406,-70.6764,Chile,Dry Port,Santiago de Chile,0,2024/8/5 15:50
284,CLSVE,,San Vicente,-36.7395,-73.157645,Chile,Feeder Port,San Vicente,0,2024/8/5 15:50
285,CLTAL,,Talcahuano,-36.7065,-73.0989,Chile,Feeder Port,Talcahuano,0,2024/8/5 15:50
286,CLTOM,,Tome,-36.62199,-72.959355,Chile,Feeder Port,Tome,0,2024/8/5 15:50
287,CLTOQ,,Tocopilla,-22.091025,-70.21146,Chile,Feeder Port,Tocopilla,0,2024/8/5 15:50
288,CLTTL,,Taltal,-25.399722,-70.483056,Chile,Feeder Port,Taltal,0,2024/8/5 15:50
289,CLVAP,,Valparaiso,-33.03416,-71.613695,Chile,Main Port,Valparaiso,0,2024/8/5 15:50
290,CLWCA,,Castro,-42.47749905,-73.7630005,Chile,Feeder Port,Castro,0,2024/8/5 15:51
291,CLZAL,,Valdivia,-39.823765,-73.248425,Chile,Feeder Port,Valdivia,0,2024/8/5 15:51
292,CMDLA,,Douala,4.0462475,9.703109,Cameroon,Feeder Port,Douala,0,2024/8/5 15:51
293,CMKBI,,Kribi,2.9385,9.9065,Cameroon,Feeder Port,Kribi,0,2024/8/5 15:51
294,CMTKC,,Tiko,4.0755,9.3647,Cameroon,Dry Port,Tiko,0,2024/8/5 15:51
295,CMVCC,,"Victoria,CM",4.01639,9.20111,Cameroon,Feeder Port,Victoria,0,2024/8/5 15:51
296,CMYAO,,Yaounde,3.86667,11.51667,Cameroon,Dry Port,Yaounde,0,2024/8/5 15:51
297,CNAQG,,Anqing,30.511585,117.0535,China,Feeder Port,Anqing,0,2024/8/5 15:51
298,CNBBU,,Bengbu,32.93333,117.35,China,Dry Port,Bengbu,0,2024/8/5 15:51
299,CNBDZ,,Baoding,38.85,115.5,China,Dry Port,Baoding,0,2024/8/5 15:51
300,CNBEI,,Beilun,29.926545,121.8525,China,Main Port,Ningbo,0,2024/8/5 15:51
301,CNBIH,,Beihai,21.46570395,109.071125,China,Feeder Port,Beihai,0,2024/8/5 15:51
302,CNBIJ,,Beijiao,22.8977,113.2237,China,Feeder Port,Foshan,0,2024/8/5 15:51
303,CNBJS,,Beijing,39.93849,116.4135,China,Dry Port,Beijing,0,2024/8/5 15:51
304,CNBOJ,,Baoji,34.35968,107.239,China,Dry Port,Baoji,0,2024/8/5 15:51
305,CNBOT,,Baotou,40.65,109.8167,China,Dry Port,Baotou,0,2024/8/5 15:51
306,CNBSP,,Basuo,19.0976,108.628,China,Feeder Port,Dongfang,0,2024/8/5 15:51
307,CNBYU,,Baiyun,0,0,China,Dry Port,Guangzhou,1,2024/8/5 15:51
308,CNCAN,,Guangzhou,23.0855,113.425,China,Main Port,Guangzhou,0,2024/8/5 15:51
309,CNCGD,,Changde,29.03333,111.85,China,Dry Port,Changde,0,2024/8/5 15:51
310,CNCGS,,Changshu,31.7635,120.9466,China,Feeder Port,Changshu,0,2024/8/5 15:51
311,CNCGZ,,Zhengzhou,34.78993,113.6298,China,Dry Port,Zhengzhou,0,2024/8/5 15:51
312,CNCHG,,Chenghai,0,0,China,Dry Port,chenghai,1,2024/8/5 15:51
313,CNCHI,,Chizhou,30.65,117.4667,China,Dry Port,Chizhou,0,2024/8/5 15:51
314,CNCHQ,,Chongqing,29.56956,106.60535,China,Feeder Port,Chongqing,0,2024/8/5 15:51
315,CNCHU,,Chaohu,31.6,117.85,China,Dry Port,Chaohu,0,2024/8/5 15:51
316,CNCHZ,,Chuzhou,32.31667,118.2833,China,Dry Port,Chuzhou,0,2024/8/5 15:51
317,CNCIX,,Cixi,30.2089,121.2748,China,Dry Port,Cixi,0,2024/8/5 15:51
318,CNCNA,,Changsha,28.1846,112.9772,China,Feeder Port,Changsha,0,2024/8/5 15:51
319,CNCNG,,Chengde,40.9499,117.9599,China,Dry Port,Chengde,0,2024/8/5 15:51
320,CNCOZ,,Chaozhou,23.56575395,117.104473,China,Feeder Port,Chaozhou,0,2024/8/5 15:51
321,CNCPI,,Changping,22.97486,113.9935,China,Dry Port,Dongguan,0,2024/8/5 15:51
322,CNCSW,,Chuanshan,29.88741,122.03169,China,Feeder Port,Ningbo,0,2024/8/5 15:51
323,CNCTU,,Chengdu,30.658611,104.064722,China,Feeder Port,Chengdu,0,2024/8/5 15:51
324,CNCWN,,Chiwan,22.462935,113.88175,China,Main Port,Shenzhen,0,2024/8/5 15:51
325,CNCZX,,Changzhou,31.9738598,119.995937,China,Feeder Port,Changzhou,0,2024/8/5 15:51
326,CNCZZ,,Cangzhou,38.3,116.8667,China,Dry Port,Cangzhou,0,2024/8/5 15:51
327,CNDAT,,Datong,40.1,113.2833,China,Dry Port,Datong,0,2024/8/5 15:51
328,CNDCB,,Dachan Bay,22.538085,113.8702,China,Main Port,Shenzhen,0,2024/8/5 15:51
329,CNDCG,,Dongchang,31.23058,121.50288,China,Feeder Port,Shanghai,0,2024/8/5 15:51
330,CNDDG,,Dandong,39.90644,124.23545,China,Feeder Port,Dandong,0,2024/8/5 15:52
331,CNDEH,,Dehui,44.53333,125.7,China,Dry Port,Dehui,0,2024/8/5 15:52
332,CNDGG,,Dongguan,22.92799,113.6116,China,Feeder Port,Dongguan,0,2024/8/5 15:52
333,CNDLC,,Dalian,38.997475,121.7645,China,Main Port,Dalian,0,2024/8/5 15:52
334,CNDSN,,Dongshan,23.7451,117.4789,China,Feeder Port,Zhangzhou,0,2024/8/5 15:52
335,CNDXW,,Ningbo Daxie investment Wharf,29.92109,121.93544,China,Feeder Port,Ningbo,0,2024/8/5 15:52
336,CNDYG,,Dongying,38.08194,118.97715,China,Feeder Port,Dongying,0,2024/8/5 15:52
337,CNEZH,,Ezhou,30.4,114.8167,China,Dry Port,Ezhou,0,2024/8/5 15:52
338,CNFAN,,Fangchenggang,21.59459,108.384,China,Main Port,Fangchenggang,0,2024/8/5 15:52
339,CNFHC,,Haicang,24.4568,117.9877,China,Feeder Port,Xiamen,0,2024/8/5 15:52
340,CNFOC,,Fuzhou,26.000305,119.43515,China,Feeder Port,Fuzhou,0,2024/8/5 15:52
341,CNFOS,,Foshan,22.99695585,113.0719335,China,Feeder Port,Foshan,0,2024/8/5 15:52
342,CNFQG,,Fuqing,25.71104,119.385304,China,Feeder Port,Fuqing,0,2024/8/5 15:52
343,CNFRT,,Xingang,22.99695585,113.0719335,China,Dry Port,Foshan,0,2024/8/5 15:52
344,CNFSN,,Fushun,41.85,123.9,China,Dry Port,Fushun,0,2024/8/5 15:52
345,CNGLE,,Gulei,23.7662,117.6045,China,Feeder Port,Zhangzhou,0,2024/8/5 15:52
346,CNGLN,,Gaolan,0,0,China,Dry Port,Lanzhou,1,2024/8/5 15:52
347,CNGMI,,Gaomi,36.38333,119.75,China,Dry Port,Gaomi,0,2024/8/5 15:52
348,CNGOM,,Gaoming,22.88657285,112.898041,China,Feeder Port,Foshan,0,2024/8/5 15:52
349,CNGON,,Gaolan,21.95602,113.2219,China,Feeder Port,Zhuhai,0,2024/8/5 15:52
350,CNGSA,,Cangshan,0,0,China,Dry Port,cangshan,1,2024/8/5 15:52
351,CNGUG,,Guigang Port,23.08277778,109.6166667,China,Feeder Port,Guigang,0,2024/8/5 15:52
352,CNGZH,,Ganzhou,25.8306,114.9328,China,Dry Port,Ganzhou,0,2024/8/5 15:52
353,CNHAK,,Haikou,20.052635,110.27885,China,Feeder Port,Haikou,0,2024/8/5 15:52
354,CNHAZ,,Hangzhou,30.26976,120.1499,China,Dry Port,Hangzhou,0,2024/8/5 15:52
355,CNHDG,,Huadu,23.3472,113.1335,China,Feeder Port,Guangzhou,0,2024/8/5 15:52
356,CNHDS,,Handan,36.6,114.4833,China,Dry Port,Handan,0,2024/8/5 15:52
357,CNHEY,,Heyuan,23.729417,114.6615574,China,Feeder Port,Heyuan,0,2024/8/5 15:52
358,CNHFI,,Hefei,31.8169,117.2285,China,Feeder Port,Hefei,0,2024/8/5 15:52
359,CNHGW,,Hongwan,22.167625,113.45375,China,Feeder Port,Zhuhai,0,2024/8/5 15:52
360,CNHIN,,Haining,30.54,120.68,China,Dry Port,Haining,0,2024/8/5 15:52
361,CNHIY,,Haiyan,0,0,China,Dry Port,haiyan,1,2024/8/5 15:52
362,CNHLJ,,Jinghai,0,0,China,Dry Port,Jieyang,1,2024/8/5 15:52
363,CNHME,,Haimen,28.6830127,121.4357783,China,Feeder Port,Taizhou,0,2024/8/5 15:52
364,CNHMN,,Humen,22.81577,113.6729,China,Feeder Port,Dongguan,0,2024/8/5 15:52
365,CNHNY,,Hengyang,26.88333,112.6167,China,Dry Port,Hengyang,0,2024/8/5 15:52
366,CNHRN,,Harbin,45.8,126.54,China,Dry Port,Harbin,0,2024/8/5 15:53
367,CNHSC,,Shaoguan,24.7880882,113.4647264,China,Dry Port,Shaoguan,0,2024/8/5 15:53
368,CNHSI,,Huangshi,30.20017,115.04,China,Feeder Port,Huangshi,0,2024/8/5 15:53
369,CNHSN,,Heshan,22.8014,113.0023,China,Feeder Port,He Shan,0,2024/8/5 15:53
370,CNHUA,,Huangpu,23.05658,113.5281,China,Main Port,Guangzhou,0,2024/8/5 15:53
371,CNHUD,,Huludao,40.71915,121.0103,China,Feeder Port,Huludao,0,2024/8/5 15:53
372,CNHUH,,Huanghua,38.325,118.11425,China,Feeder Port,Cangzhou,0,2024/8/5 15:53
373,CNHUI,,Huizhou,22.673815,114.62845,China,Feeder Port,Huizhou,0,2024/8/5 15:53
374,CNHZH,,Huzhou,30.98,120.09,China,Feeder Port,Huzhou,0,2024/8/5 15:53
375,CNING,,Xinyang,32.13333,114.05,China,Dry Port,Xinyang,0,2024/8/5 15:53
376,CNJAX,,Jiaxing,30.609,121.09545,China,Feeder Port,Jiaxing,0,2024/8/5 15:53
377,CNJDZ,,Jingdezhen,29.28333,117.2167,China,Dry Port,Jingdezhen,0,2024/8/5 15:53
378,CNJGR,,Jungong Road port,31.35174,121.50865,China,Feeder Port,Shanghai,0,2024/8/5 15:53
379,CNJGY,,Jiangyin,25.43106,119.2986,China,Feeder Port,Fuqing,0,2024/8/5 15:53
380,CNJGZ,,Jingzhou,30.25829,112.22455,China,Feeder Port,Jingzhou,0,2024/8/5 15:53
381,CNJHA,,Jinhua,29.11667,119.65,China,Dry Port,Jinhua,0,2024/8/5 15:53
382,CNJIA,,Jiangyin,31.917035,120.1911,China,Feeder Port,Jiangyin,0,2024/8/5 15:53
383,CNJIU,,Jiujiang,29.759295,115.9971,China,Feeder Port,Jiujiang,0,2024/8/5 15:53
384,CNJMN,,Jiangmen,22.604095,113.1198,China,Feeder Port,Jiangmen,0,2024/8/5 15:53
385,CNJNA,,Jinan,36.4,117,China,Dry Port,Jinan,0,2024/8/5 15:53
386,CNJNZ,,Jinzhou,40.83311,121.04575,China,Feeder Port,Jinzhou,0,2024/8/5 15:53
387,CNJUJ,,Jiujiang,22.83,113,China,Feeder Port,Foshan,0,2024/8/5 15:53
388,CNJYG,,Jieyang,23.5502566,116.2363709,China,Feeder Port,Jieyang,0,2024/8/5 15:53
389,CNJZU,,Jiuzhou,22.24044,113.5811,China,Feeder Port,Zhuhai,0,2024/8/5 15:53
390,CNKAP,,Kaiping,22.38383,112.6992,China,Dry Port,Kaiping,0,2024/8/5 15:53
391,CNKFG,,Kaifeng,34.78333,114.3333,China,Dry Port,Kaifeng,0,2024/8/5 15:53
392,CNKHN,,Nanchang,28.669795,115.8491,China,Feeder Port,Nanchang,0,2024/8/5 15:53
393,CNKNM,,Kunming,25.01821,102.8021,China,Dry Port,Kunming,0,2024/8/5 15:53
394,CNKUS,,Kunshan,31.36666667,120.9666667,China,Dry Port,Kunshan,0,2024/8/5 15:53
395,CNLAZ,,Lanzhou,36.07347,103.8537,China,Dry Port,Lanzhou,0,2024/8/5 15:53
396,CNLFZ,,Langfang,39.51667,116.7,China,Dry Port,Langfang,0,2024/8/5 15:53
397,CNLIH,,Lianhuashan,0,0,China,Feeder Port,Guangzhou,1,2024/8/5 15:53
398,CNLKU,,Longkou,37.65,120.3166667,China,Feeder Port,Yantai,0,2024/8/5 15:53
399,CNLNH,,Linhai,28.6857171,121.7781372,China,Feeder Port,Taizhou,0,2024/8/5 15:53
400,CNLNS,,Lanshi,22.9758074,113.1049785,China,Feeder Port,Foshan,0,2024/8/5 15:54
401,CNLSS,,Lishui,28.59,119.91,China,Dry Port,Lishui,0,2024/8/5 15:54
402,CNLUD,,Liudu,23.06689,112.0195,China,Feeder Port,Yunfu,0,2024/8/5 15:54
403,CNLUU,,Leliu,22.8521,113.1324,China,Feeder Port,Foshan,0,2024/8/5 15:54
404,CNLUZ,,Luzhou,28.888265,105.4296,China,Feeder Port,Luzhou,0,2024/8/5 15:54
405,CNLYG,,Lianyungang,34.79039,119.56655,China,Main Port,Lianyungang,0,2024/8/5 15:54
406,CNLZH,,Liuzhou,24.32570045,109.428,China,Dry Port,Liuzhou,0,2024/8/5 15:54
407,CNLZO,,Laizhou,37.41619,119.94575,China,Feeder Port,Yantai,0,2024/8/5 15:54
408,CNMAA,,Maanshan,31.7153,118.4643,China,Feeder Port,Maanshan,0,2024/8/5 15:54
409,CNMAC,,Macun,19.9662,110.0255,China,Feeder Port,Chengmaixian,0,2024/8/5 15:54
410,CNMAW,,Mawei Port,26.000305,119.43515,China,Feeder Port,Fuzhou,0,2024/8/5 15:54
411,CNMCH,,Machong,0,0,China,Dry Port,mayongzhen,1,2024/8/5 15:54
412,CNMEZ,,Meizhou,24.2849468,115.9840288,China,Dry Port,Meizhou,0,2024/8/5 15:54
413,CNMMI,,Maoming,21.449,111.0855,China,Feeder Port,Maoming,0,2024/8/5 15:54
414,CNMSN,,Meishan,29.80386,121.98123,China,Feeder Port,Ningbo,0,2024/8/5 15:54
415,CNMWN,,Mawan,22.4804,113.8714,China,Feeder Port,Shenzhen,0,2024/8/5 15:54
416,CNMYG,,Mianyang,31.5,104.7,China,Dry Port,Mianyang,0,2024/8/5 15:54
417,CNNAH,,Nanhai(Ceased),22.7395363,113.280201,China,Feeder Port,Foshan,0,2024/8/5 15:54
418,CNNDS,,Ningde,26.76358,119.70695,China,Feeder Port,Ningde,0,2024/8/5 15:54
419,CNNGB,,Ningbo,29.8697063,121.4318761,China,Main Port,Ningbo,0,2024/8/5 15:54
420,CNNHN,,Wuhan,30.59441,114.31585,China,Main Port,Wuhan,0,2024/8/5 15:54
421,CNNHS,,Sanshan,23.0379,113.2287,China,Feeder Port,Foshan,0,2024/8/5 15:54
422,CNNJI,,Nanjing,32.2125,118.812,China,Feeder Port,Nanjing,0,2024/8/5 15:54
423,CNNSA,,Nansha,22.669175,113.66055,China,Main Port,Guangzhou,0,2024/8/5 15:54
424,CNNTG,,Nantong,31.973045,120.865,China,Feeder Port,Nantong,0,2024/8/5 15:54
425,CNPAJ,,Panjin,41.11667,122.05,China,Dry Port,Panjin,0,2024/8/5 15:54
426,CNPDU,,Pingdu,36.748146,119.989773,China,Dry Port,Pingdu,0,2024/8/5 15:54
427,CNPHN,,Pinghu Nan,22.64308,114.1354,China,Dry Port,Shenzhen,0,2024/8/5 15:54
428,CNPLI,,Penglai,37.822325,120.8036,China,Feeder Port,Penglai,0,2024/8/5 15:54
429,CNPUT,,Putian,25.43106,119.2986,China,Feeder Port,Putian,0,2024/8/5 15:54
430,CNPYU,,Panyu,0,0,China,Feeder Port,Guangzhou,1,2024/8/5 15:54
431,CNQGY,,Qingyuan,23.7,113.0333333,China,Feeder Port,Qingyuan,0,2024/8/5 15:54
432,CNQLN,,Qinglan,19.5245,110.831,China,Feeder Port,Wenchang,0,2024/8/5 15:54
433,CNQZH,,Qinzhou,21.9628,108.6215,China,Feeder Port,Qinzhou,0,2024/8/5 15:54
434,CNQZJ,,Quanzhou,24.8285,118.7325,China,Feeder Port,Quanzhou,0,2024/8/5 15:55
435,CNQZS,,Quzhou,28.97053,118.857,China,Dry Port,Quzhou,0,2024/8/5 15:55
436,CNROQ,,Rongqi,22.8029,113.2829,China,Feeder Port,Foshan,0,2024/8/5 15:55
437,CNRUG,,Rugao,32.355639,120.595146,China,Dry Port,Rugao,0,2024/8/5 15:55
438,CNRZH,,Rizhao,35.361815,119.5269,China,Feeder Port,Rizhao,0,2024/8/5 15:55
439,CNSAC,,Shuangcheng,0,0,China,Dry Port,shuangcheng,1,2024/8/5 15:55
440,CNSBU,,Sanbu,22.369,112.7171,China,Feeder Port,Kai Ping,0,2024/8/5 15:55
441,CNSDG,,Shuidong,21.51667,111,China,Feeder Port,Maoming,0,2024/8/5 15:55
442,CNSHA,,Shanghai,31.366365,121.61475,China,Main Port,Shanghai,0,2024/8/5 15:55
443,CNSHD,,Shidao,36.890725,122.4488,China,Feeder Port,Weihai,0,2024/8/5 15:55
444,CNSHF,,Qinhuangdao,39.91558,119.64495,China,Feeder Port,Qinhuangdao,0,2024/8/5 15:55
445,CNSHH,,Shishi,24.73333,118.6333,China,Dry Port,Shishi,0,2024/8/5 15:55
446,CNSHK,,Shekou,22.4929,113.9246,China,Main Port,Shenzhen,0,2024/8/5 15:55
447,CNSHM,,Mafang,0,0,China,Dry Port,Zhaoqing,1,2024/8/5 15:55
448,CNSHS,,Shashi,0,0,China,Dry Port,shashi,1,2024/8/5 15:55
449,CNSHY,,Shenyang,41.83768,123.75,China,Dry Port,Shenyang,0,2024/8/5 15:55
450,CNSIA,,Xi'an,34.37594,109.1197,China,Dry Port,Xi'an,0,2024/8/5 15:55
451,CNSIH,,Sihui,23.33443,112.6969,China,Dry Port,Sihui,0,2024/8/5 15:55
452,CNSIN,,Shatian,22.91992,113.617,China,Dry Port,Dongguan,0,2024/8/5 15:55
453,CNSJJ,,Jiaoxin,23.240887,113.2151739,China,Feeder Port,Guangzhou,0,2024/8/5 15:55
454,CNSJQ,,Sanshui,23.16666667,112.85,China,Feeder Port,Foshan,0,2024/8/5 15:55
455,CNSJZ,,Shijiazhuang,38.02,114.3,China,Dry Port,Shijiazhuang,0,2024/8/5 15:55
456,CNSNW,,Shenwan,22.37749,113.3533,China,Dry Port,Zhongshan,0,2024/8/5 15:55
457,CNSNW,,Shenwan,22.37749,113.3533,China,Dry Port,Zhongshan,0,2024/8/5 15:55
458,CNSPG,,Siping,41.08333,124.7333,China,Dry Port,sipingzhen,0,2024/8/5 15:55
459,CNSRG,,Sanrong,23.0802,112.1048,China,Feeder Port,Zhaoqing,0,2024/8/5 15:55
460,CNSRS,,Shangrao,28.4388829,117.807417,China,Dry Port,Shangrao,0,2024/8/5 15:55
461,CNSUD,,Shunde,22.8030853,113.283249,China,Feeder Port,Foshan,0,2024/8/5 15:55
462,CNSWA,,Shantou,23.341,116.672,China,Feeder Port,Shantou,0,2024/8/5 15:55
463,CNSWE,,Shanwei,22.76,115.358,China,Feeder Port,Shanwei,0,2024/8/5 15:55
464,CNSXG,,Shaoxing,29.99286,120.5831,China,Dry Port,Shaoxing,0,2024/8/5 15:55
465,CNSYA,,Sanya,18.226,109.506,China,Feeder Port,Sanya,0,2024/8/5 15:55
466,CNSZH,,Suzhou,31.3,120.633056,China,Feeder Port,Suzhou,0,2024/8/5 15:55
467,CNSZX,,Shenzhen,22.5045,113.8535,China,Main Port,Shenzhen,0,2024/8/5 15:55
468,CNTAC,,Taicang,31.659,121.1685,China,Feeder Port,Suzhou,0,2024/8/5 15:55
469,CNTAI,,Taian,36.18333,117.1333,China,Dry Port,Taian,0,2024/8/5 15:55
470,CNTAO,,Qingdao,36.05661,120.3201,China,Main Port,Qingdao,0,2024/8/5 15:55
471,CNTAP,,Taiping,21.03333,110.1667,China,Dry Port,Taipingzhen,0,2024/8/5 15:55
472,CNTAZ,,Taizhou,28.69311,121.4634,China,Dry Port,Taizhou,0,2024/8/5 15:55
473,CNTGS,,Tangshan,39.200875,119.01535,China,Feeder Port,Tangshan,0,2024/8/5 15:55
474,CNTIL,,Tieling,42.28333,123.8333,China,Dry Port,Tieling,0,2024/8/5 15:55
475,CNTIS,,Taishan,22.25272,112.79435,China,Dry Port,Taishan,0,2024/8/5 15:55
476,CNTJG,,Taijiang,0,0,China,Feeder Port,Fuzhou,1,2024/8/5 15:56
477,CNTOL,,Tongling,30.91488,117.7607,China,Dry Port,Tongling,0,2024/8/5 15:56
478,CNTON,,Tonglu,29.795189,119.690088,China,Dry Port,Tongluxian,0,2024/8/5 15:56
479,CNTSN,,Tianjin,38.96904,117.73725,China,Main Port,Tianjin,0,2024/8/5 15:56
480,CNTXG,,Xingang,38.975833,117.7875,China,Main Port,Tianjin,0,2024/8/5 15:56
481,CNTYN,,Taiyuan,37.86881,112.5327,China,Dry Port,Taiyuan,0,2024/8/5 15:56
482,CNTZO,,Taizhou,32.48333,119.9,China,Dry Port,Taizhou,0,2024/8/5 15:56
483,CNURM,,Urumqi,43.8216272,87.4226689,China,Dry Port,Urumqi,0,2024/8/5 15:56
484,CNWAF,,Wafangdian,39.7,121.97,China,Dry Port,Wafangdian,0,2024/8/5 15:56
485,CNWEF,,Weifang,0,0,China,Feeder Port,Weifang,1,2024/8/5 15:56
486,CNWEI,,Weihai,37.476,122.21395,China,Feeder Port,Weihai,0,2024/8/5 15:56
487,CNWEN,,Wenling,28.39,121.38,China,Dry Port,Wenling,0,2024/8/5 15:56
488,CNWGQ,,Waigaoqiao,31.333,121.559,China,Feeder Port,Shanghai,0,2024/8/5 15:56
489,CNWHI,,Wuhu,31.367085,118.33715,China,Feeder Port,Wuhu,0,2024/8/5 15:56
490,CNWNZ,,Wenzhou,27.982865,120.80195,China,Feeder Port,Wenzhou,0,2024/8/5 15:56
491,CNWSW,,Wusong,31.37719,121.5,China,Feeder Port,Shanghai,0,2024/8/5 15:56
492,CNWUC,,Wuchong,23.0939,113.4554,China,Feeder Port,Guangzhou,0,2024/8/5 15:56
493,CNWUJ,,Wujiang,31.86667,118.45,China,Dry Port,Maanshan,0,2024/8/5 15:56
494,CNWUZ,,Wuzhou,23.05,111.33305,China,Feeder Port,Wuzhou,0,2024/8/5 15:56
495,CNWXS,,Wuxi,31.57388889,120.2877778,China,Feeder Port,Wuxi,0,2024/8/5 15:56
496,CNXAB,,Xinfeng,24.05405,114.2034,China,Dry Port,Xinfeng,0,2024/8/5 15:56
497,CNXCE,,Xingcheng,40.616667,120.733333,China,Dry Port,Xingcheng,0,2024/8/5 15:56
498,CNXGF,,Xiangfan,0,0,China,Dry Port,Xiangyang,1,2024/8/5 15:56
499,CNXGG,,Binhai,38.9848,117.7431,China,Feeder Port,Tianjin,0,2024/8/5 15:56
500,CNXGZ,,Xiangzhou,22.25793,113.5846,China,Feeder Port,Zhuhai,0,2024/8/5 15:56
501,CNXIL,,Xiaolan,22.67713,113.2554,China,Feeder Port,Zhongshan,0,2024/8/5 15:56
502,CNXIN,,Xinhui,22.4481,113.0355,China,Feeder Port,xinhui,0,2024/8/5 15:56
503,CNXIP,,Xingang,0,0,China,Feeder Port,Wuhu,1,2024/8/5 15:56
504,CNXIS,,Xiaoshan,0,0,China,Dry Port,xiaoshan,1,2024/8/5 15:56
505,CNXIT,,Xintangzhen,23.104,113.6045,China,,Guangzhou,0,2024/8/5 15:56
506,CNXMN,,Xiamen,24.503175,118.02925,China,Main Port,Xiamen,0,2024/8/5 15:56
507,CNXNA,,Xinsha,22.97707,113.5575,China,Feeder Port,Dongguan,0,2024/8/5 15:56
508,CNXNY,,Xinyu,27.8,114.9333,China,Dry Port,Xinyu,0,2024/8/5 15:56
509,CNXSG,,Xinsheng,30.26634,108.0028809,China,Feeder Port,Chongqing,0,2024/8/5 15:56
510,CNXSN,,Xiangshan,29.475,121.866,China,Feeder Port,Xiangshanxian,0,2024/8/5 15:56
511,CNXTA,,Xiangtan,27.82605,112.8867,China,Dry Port,Xiangtan,0,2024/8/5 15:56
512,CNXZH,,Xuzhou,34.3355,117.21,China,Feeder Port,Xuzhou,0,2024/8/5 15:57
513,CNYAN,,Yangshan,30.6137,122.0694,China,Main Port,Shanghai,0,2024/8/5 15:57
514,CNYAT,,Yantai,37.56646,121.4097,China,Feeder Port,Yantai,0,2024/8/5 15:57
515,CNYFG,,Yunfu,23.0765,112.0083,China,Feeder Port,Yunfu,0,2024/8/5 15:57
516,CNYGP,,Yangpu,19.73305556,109.1830556,China,Feeder Port,Danzhou,0,2024/8/5 15:57
517,CNYIB,,Yibin,28.76698,104.6526,China,Dry Port,Yibin,0,2024/8/5 15:57
518,CNYIC,,Yichang,30.7696,111.3258,China,Feeder Port,Yichang,0,2024/8/5 15:57
519,CNYIK,,Yingkou,40.693625,122.26615,China,Feeder Port,Yingkou,0,2024/8/5 15:57
520,CNYIU,,Yiwu,29.3032,120.0751,China,Dry Port,Yiwu,0,2024/8/5 15:57
521,CNYIX,,Yixing,31.52,119.79,China,Dry Port,Yixing,0,2024/8/5 15:57
522,CNYJI,,Yangjiang,21.66159,111.80535,China,Feeder Port,Yangjiang,0,2024/8/5 15:57
523,CNYNZ,,Yancheng,33.2147404,120.8332584,China,Feeder Port,Yancheng,0,2024/8/5 15:57
524,CNYTN,,Yantian,22.575,114.2765,China,Main Port,Shenzhen,0,2024/8/5 15:57
525,CNYUH,,Yuhuan,28.16,121.23,China,Feeder Port,Taizhou,0,2024/8/5 15:57
526,CNYUY,,Yueyang,29.357,113.117,China,Feeder Port,Yueyang,0,2024/8/5 15:57
527,CNYZH,,Yangzhou,32.312645,119.47255,China,Feeder Port,Yangzhou,0,2024/8/5 15:57
528,CNZAP,,Zhapu,30.609,121.09545,China,Feeder Port,Jiaxing,0,2024/8/5 15:57
529,CNZBO,,Zibo,0,0,China,Dry Port,Zibo,1,2024/8/5 15:57
530,CNZGA,,Zhongshan,0,0,China,Dry Port,Zhongshan,1,2024/8/5 15:57
531,CNZHB,,Zhanghua Bang,31.36183,121.49978,China,Feeder Port,Shanghai,0,2024/8/5 15:57
532,CNZHE,,Zhenjiang,32.20829,119.38875,China,Feeder Port,Zhenjiang,0,2024/8/5 15:57
533,CNZHH,,Zhenhai,29.93838,121.6897,China,Feeder Port,Ningbo,0,2024/8/5 15:57
534,CNZHJ,,Zhuji,29.7,120.2333,China,Dry Port,Zhuji,0,2024/8/5 15:57
535,CNZHQ,,Zhuanqiao,31.0686,121.397,China,Dry Port,Shanghai,0,2024/8/5 15:57
536,CNZJG,,Zhangjiagang,31.97519,120.4193,China,Feeder Port,Zhangjiagang,0,2024/8/5 15:57
537,CNZKO,,Zhoukou,33.61667,114.6333,China,Dry Port,Zhoukou,0,2024/8/5 15:57
538,CNZNG,,Zhanjiang,21.186145,110.46575,China,Feeder Port,Zhanjiang,0,2024/8/5 15:57
539,CNZOS,,Zhoushan,29.92161,122.21035,China,Main Port,Zhoushan,0,2024/8/5 15:57
540,CNZQG,,Zhaoqing,23.052565,112.46125,China,Feeder Port,Zhaoqing,0,2024/8/5 15:57
541,CNZSI,,Zhongshan INT'L,22.58245,113.48445,China,Feeder Port,Zhongshan,0,2024/8/5 15:57
542,CNZSN,,Zhongshan,22.58245,113.48445,China,Feeder Port,Zhongshan,0,2024/8/5 15:57
543,CNZSS,,Zhongshan Sinotrans,22.58245,113.48445,China,Feeder Port,Zhongshan,0,2024/8/5 15:57
544,CNZUH,,Zhuhai,21.91982,113.2,China,Feeder Port,Zhuhai,0,2024/8/5 15:57
545,CNZZU,,Zhangzhou,24.41093,118.0476,China,Feeder Port,Zhangzhou,0,2024/8/5 15:57
546,FIDEG,,Degerby,60.05,24.2,Finland,Feeder Port,Degerby,0,2024/8/5 15:58
547,FIHEL,,Helsinki,60.1685,24.9445,Finland,Feeder Port,Helsinki,0,2024/8/5 15:58
548,FIHKO,,Hanko,59.816,22.936,Finland,Feeder Port,Hanko,0,2024/8/5 15:58
549,FIHMN,,Hamina,60.539,27.1715,Finland,Feeder Port,Hamina,0,2024/8/5 15:58
550,FIINK,,Inkoo,60.01349,23.9247,Finland,Feeder Port,Inkoo,0,2024/8/5 15:58
551,FIISN,,Isnas,60.39972222,26,Finland,Feeder Port,Isnas,0,2024/8/5 15:58
552,FIKAS,,Kaskinen,62.3525,21.2125,Finland,Feeder Port,Kaskinen,0,2024/8/5 15:58
553,FIKEM,,Kemi,65.73,24.55605,Finland,Feeder Port,Kemi,0,2024/8/5 15:58
554,FIKOK,,Kokkola(Karleby),63.85056,23.030845,Finland,Feeder Port,Kokkola,0,2024/8/5 15:58
555,FIKRS,,Kristiinankaupunki,62.26666667,21.36666667,Finland,Feeder Port,Kristiinankaupunki,0,2024/8/5 15:58
556,FIKTK,,Kotka,60.4745,26.941,Finland,Feeder Port,Kotka,0,2024/8/5 15:59
557,FIKVH,,Koverhar,59.879125,23.22553,Finland,Feeder Port,Koverhar,0,2024/8/5 15:59
558,FILOV,,Loviisa,60.39972222,26.26666667,Finland,Feeder Port,Loviisa,0,2024/8/5 15:59
559,FIMAR,,Mariehamn,60.095,19.935,Finland,Feeder Port,Mariehamn,0,2024/8/5 15:59
560,FIMER,,Merikarvia,61.85,21.4975,Finland,Feeder Port,Merikarvia,0,2024/8/5 15:59
561,FIMTO,,Mantyluoto,61.59724,21.48797,Finland,Feeder Port,Pori,0,2024/8/5 15:59
562,FINAA,,Naantali,60.453665,22.05209,Finland,Feeder Port,Naantali,0,2024/8/5 15:59
563,FINYS,,Nystad(Uusikaupunki),60.7952,21.389,Finland,Feeder Port,Uusikaupunki,0,2024/8/5 15:59
564,FIPGS,,Pargas,60.28333333,22.3,Finland,Feeder Port,Pargas,0,2024/8/5 15:59
565,FIPIE,,Pietarsaari,63.70809,22.68963,Finland,Feeder Port,Pietarsaari,0,2024/8/5 15:59
566,FIPOR,,Pori(Bjorneborg),61.48305556,21.8,Finland,Dry Port,Pori,0,2024/8/5 15:59
567,FIPVO,,Porvoo,60.383056,25.66667,Finland,Dry Port,Porvoo,0,2024/8/5 15:59
568,FIRAA,,Raahe,64.65,24.41666667,Finland,Feeder Port,Raahe,0,2024/8/5 15:59
569,FIRAU,,Rauma,61.1235,21.453,Finland,Feeder Port,Rauma,0,2024/8/5 15:59
570,FIREP,,Reposaari,61.614465,21.446195,Finland,Feeder Port,Pori,0,2024/8/5 15:59
571,FISMC,,Saimaa Canal,60.9724,28.5322,Finland,Dry Port,Nuijamaa,0,2024/8/5 15:59
572,FITAM,,Tammisaari,59.966667,23.433056,Finland,Feeder Port,Raseborg,0,2024/8/5 15:59
573,FITKU,,Turku Abo,60.4385,22.22697,Finland,Feeder Port,Turku Abo,0,2024/8/5 15:59
574,FITOP,,Toppila,64.5373,28.2606,Finland,Dry Port,Oulu,0,2024/8/5 15:59
575,FITOR,,Torino,65.84365,24.15515,Finland,Feeder Port,Tornio,0,2024/8/5 15:59
576,FIULE,,Oulu,65.0159,25.4333,Finland,Feeder Port,Oulu,0,2024/8/5 15:59
577,FIVAA,,Vaasa,63.0845,21.553,Finland,Feeder Port,Vaasa,0,2024/8/5 15:59
578,FIVAS,,Vaskiluoto,63.0906,21.573,Finland,,Vaasa,0,2024/8/5 15:59
579,FIVAT,,Vantaa,60.294088,25.0301443,Finland,Dry Port,Vantaa,0,2024/8/5 15:59
580,FIVEI,,Veitsiluoto,65.6841,24.6244,Finland,Feeder Port,Veitsiluoto,0,2024/8/5 15:59
581,FJLBS,,Labasa,-16.363175,179.36415,Fiji,Feeder Port,Labasa,0,2024/8/5 15:59
582,FJLEV,,Levuka,-17.68332,178.82665,Fiji,Feeder Port,Levuka,0,2024/8/5 15:59
583,FJLTK,,Lautoka,-17.614,177.4456,Fiji,Feeder Port,Lautoka,0,2024/8/5 15:59
584,FJSUV,,Suva,-18.12138,178.41645,Fiji,Feeder Port,Suva,0,2024/8/5 15:59
585,FJSVB,,Savusavu Bay,-16.778,179.333,Fiji,Feeder Port,Savusavu,0,2024/8/5 15:59
586,FJVTP,,Vatia Point,-17.418,177.7566,Fiji,,Vatia Point,0,2024/8/5 15:59
587,FRAJA,,Ajaccio,41.925915,8.742398,France,Feeder Port,Ajaccio,0,2024/8/5 15:59
588,FRAMI,,Amiens,49.892,2.299,France,Dry Port,Amiens,0,2024/8/5 15:59
589,FRARC,,Arcachon,44.55972222,-1.248,France,,Arcachon,0,2024/8/5 15:59
590,FRATR,,Antifer,49.65600015,0.130000003,France,Feeder Port,Antifer,0,2024/8/5 15:59
591,FRATS,,Antibes,43.5864029,7.126628635,France,Feeder Port,Antibes,0,2024/8/5 15:59
592,FRBAS,,Bassens,44.85738185,-0.54725647,France,Feeder Port,Bassens,0,2024/8/5 16:00
593,FRBAY,,Bayonne,43.49246025,-1.474666,France,Feeder Port,Bayonne,0,2024/8/5 16:00
594,FRBES,,Brest,48.37665365,-4.485697505,France,Feeder Port,Brest,0,2024/8/5 16:00
595,FRBIQ,,Biarritz,43.49381,-1.553868,France,,Biarritz,0,2024/8/5 16:00
596,FRBLA,,Blaye,45.12444115,-0.666012228,France,Feeder Port,Blaye,0,2024/8/5 16:00
597,FRBOD,,Bordeaux,44.85738185,-0.54725647,France,Dry Port,Bordeaux,0,2024/8/5 16:00
598,FRBOL,,Boulogne-Sur-Mer,50.7241535,1.58780652,France,,Boulogne-Sur-Mer,0,2024/8/5 16:00
599,FRBON,,Bonifacio,41.3887806,9.15995741,France,Feeder Port,Bonifacio,0,2024/8/5 16:00
600,FRBTA,,Bastia,42.6986694,9.45341539,France,Feeder Port,Bastia,0,2024/8/5 16:00
601,FRCAM,,Camaret,48.28333333,-4.616666667,France,Feeder Port,Camaret,0,2024/8/5 16:00
602,FRCAR,,Caronte,43.40323,5.0149185,France,Feeder Port,Caronte,0,2024/8/5 16:00
603,FRCER,,Cherbourg,49.64689635,-1.62224418,France,Feeder Port,Cherbourg,0,2024/8/5 16:00
604,FRCFR,,Caen,49.189394,-0.336173698,France,Feeder Port,Caen,0,2024/8/5 16:00
605,FRCLE,,Cancale,48.68305556,-1.85,France,Feeder Port,Cancale,0,2024/8/5 16:00
606,FRCNG,,Cognac,0,0,France,Dry Port,Cognac,1,2024/8/5 16:00
607,FRCNS,,Cannes,43.54805755,7.014957905,France,Feeder Port,Cannes,0,2024/8/5 16:00
608,FRCON,,Concarneau,47.86666667,-3.916666667,France,Feeder Port,Concarneau,0,2024/8/5 16:00
609,FRCQF,,Calais,50.96554375,1.852272865,France,Feeder Port,Calais-Dunkerque,0,2024/8/5 16:00
610,FRCVI,,Calvi,42.56521225,8.759242535,France,Feeder Port,Calvi,0,2024/8/5 16:00
611,FRDEA,,Deauville,49.38333333,0.083333333,France,Feeder Port,Deauville,0,2024/8/5 16:00
612,FRDGS,,Dourges,0,0,France,Dry Port,Dourges,1,2024/8/5 16:00
613,FRDIJ,,Dijon,0,0,France,Dry Port,Dijon,1,2024/8/5 16:00
614,FRDKK,,Dunkerque Ouest(Dunkirk),51.023295,2.172375,France,Main Port,Dunkerque Ouest(Dunkirk),0,2024/8/5 16:00
615,FRDON,,Donges,47.305565,-2.0895725,France,Feeder Port,Donges,0,2024/8/5 16:00
616,FRDOU,,Douarnenez,48.0892,-4.33278,France,Feeder Port,Douarnenez,0,2024/8/5 16:00
617,FRDPE,,Dieppe,49.92559,1.088792,France,Feeder Port,Dieppe,0,2024/8/5 16:00
618,FRFEC,,Fecamp,49.76215,0.37552555,France,Feeder Port,Fecamp,0,2024/8/5 16:00
619,FRFGL,,Gennevilliers,48.94263,2.281301,France,Feeder Port,Gennevilliers,0,2024/8/5 16:00
620,FRFOS,,Fos Sur Mer,43.422905,4.8651305,France,Main Port,Fos Sur Mer,0,2024/8/5 16:00
621,FRFUT,,Futuna,-14.29566,-178.15955,France,Feeder Port,Futuna Island,0,2024/8/5 16:00
622,FRGLS,,Gravelines,50.98333333,2.05,France,Feeder Port,Gravelines,0,2024/8/5 16:00
623,FRGNB,,Grenoble,0,0,France,Dry Port,Grenoble,1,2024/8/5 16:00
624,FRGRA,,Granville,48.833615,-1.599071,France,Feeder Port,Granville,0,2024/8/5 16:00
625,FRHON,,Honfleur,49.429225,0.2443171,France,Feeder Port,Honfleur,0,2024/8/5 16:00
626,FRIRO,,Ile Rousse,42.64972222,8.933055556,France,Feeder Port,Ile Rousse,0,2024/8/5 16:00
627,FRLAN,,Landerneau,48.4514,-4.2555,France,Dry Port,Landerneau,0,2024/8/5 16:00
628,FRLAV,,Lavera,43.39706,4.994015,France,Feeder Port,Lavera,0,2024/8/5 16:00
629,FRLCH,,Le Chateau,45.88333333,-1.183333333,France,Feeder Port,Le Chateau,0,2024/8/5 16:00
630,FRLCT,,La Ciotat,43.170875,5.6108175,France,Feeder Port,La Ciotat,0,2024/8/5 16:00
631,FRLCV,,La Courneuve,0,0,France,Dry Port,La Courneuve,1,2024/8/5 16:00
632,FRLEH,,Le Havre,49.5,0.116666667,France,Main Port,Le Havre,0,2024/8/5 16:00
633,FRLIB,,Libourne,44.91666667,-0.25,France,Feeder Port,Libourne,0,2024/8/5 16:01
634,FRLIL,,Lille,50.66666667,3.066666667,France,Dry Port,Lille,0,2024/8/5 16:01
635,FRLIO,,Lyon,45.76666667,4.833333333,France,Feeder Port,Lyon,0,2024/8/5 16:01
636,FRLNO,,La Nouvelle,43.01955,3.0520475,France,Feeder Port,La Nouvelle,0,2024/8/5 16:01
637,FRLOC,,Loctudy,47.8314,-4.1717,France,Feeder Port,Loctudy,0,2024/8/5 16:01
638,FRLPA,,La Pallice,46.15403,-1.2196935,France,Feeder Port,La Rochelle,0,2024/8/5 16:01
639,FRLRH,,La Rochelle,46.14458,-1.166586,France,Feeder Port,La Rochelle,0,2024/8/5 16:01
640,FRLRT,,Lorient,47.73404,-3.36203,France,Feeder Port,Lorient,0,2024/8/5 16:01
641,FRLVE,,Le Verdon,45.556105,-1.0608305,France,,Le Verdon,0,2024/8/5 16:01
642,FRMAR,,Marans,46.29972222,-1,France,Feeder Port,Marans,0,2024/8/5 16:01
643,FRMLH,,Mulhouse,0,0,France,Dry Port,Mulhouse,1,2024/8/5 16:01
644,FRMOR,,Morlaix,48.53333333,-3.833333333,France,Feeder Port,Morlaix,0,2024/8/5 16:01
645,FRMPL,,Montpellier,43.6101249,3.8041208,France,Dry Port,Montpellier,0,2024/8/5 16:01
646,FRMRS,,Marseille,43.309425,5.3620285,France,Feeder Port,Marseille,0,2024/8/5 16:01
647,FRMTS,,Martigues,43.41388889,5.054444444,France,,Martigues,0,2024/8/5 16:01
648,FRMTX,,Montoir-de-Bretagne,47.33,-2.15,France,Feeder Port,Montoir-de-Bretagne,0,2024/8/5 16:01
649,FRMZM,,Metz,49.126075,6.1748315,France,Dry Port,Metz,0,2024/8/5 16:01
650,FRNCE,,Nice,43.6942,7.2865,France,Feeder Port,Nice,0,2024/8/5 16:01
651,FRNTE,,Nantes,47.21391,-1.5416555,France,Feeder Port,Nantes,0,2024/8/5 16:01
652,FRORR,,Orleans,47.9568,1.9125,France,Dry Port,Orleans,0,2024/8/5 16:01
653,FROUI,,Ouistreham,49.28196,-0.2473263,France,Feeder Port,Ouistreham,0,2024/8/5 16:01
654,FRPAR,,Paris,48.84664,2.332535,France,Dry Port,Paris,0,2024/8/5 16:01
655,FRPBF,,Paimboeuf,47.28891,-2.0262195,France,Feeder Port,Paimboeuf,0,2024/8/5 16:01
656,FRPDB,,Port De Bouc,43.39715,4.983213,France,Feeder Port,Port De Bouc,0,2024/8/5 16:01
657,FRPDS,,Plougastel-Daoulas,0,0,France,Dry Port,Plougastel-Daoulas,1,2024/8/5 16:01
658,FRPJE,,Port Jerome,49.46666667,0.516666667,France,Feeder Port,Quillebeuf Sur Seine,0,2024/8/5 16:01
659,FRPPL,,Paimpol,48.78305556,-3.03055556,France,Feeder Port,Paimpol,0,2024/8/5 16:01
660,FRPRO,,Propriano,41.677255,8.903101,France,Feeder Port,Propriano,0,2024/8/5 16:01
661,FRPVO,,Porto Vecchio,41.588885,9.2886975,France,Feeder Port,Porto Vecchio,0,2024/8/5 16:01
662,FRPVS,,Port Vendres,42.518385,3.111498,France,Feeder Port,Port Vendres,0,2024/8/5 16:01
663,FRQUI,,Quimper,47.93333,-4.13333,France,Dry Port,Quimper,0,2024/8/5 16:01
664,FRRHE,,Reims,0,0,France,Dry Port,Reims,1,2024/8/5 16:01
665,FRROC,,Rochefort,45.948975,-0.95389915,France,Feeder Port,Rochefort,0,2024/8/5 16:01
666,FRROI,,Roissy-En-France,49.01,2.52,France,Dry Port,Roissy-En-France,0,2024/8/5 16:01
667,FRROS,,Roscoff,48.7197,-3.9645,France,Feeder Port,Roscoff,0,2024/8/5 16:01
668,FRSBR,,Saint Brieuc,48.52718,-2.7380815,France,Feeder Port,Saint Brieuc,0,2024/8/5 16:01
669,FRSET,,Sete,43.404,3.709,France,Feeder Port,Sete,0,2024/8/5 16:01
670,FRSML,,Saint Malo,48.646155,-2.016869,France,Feeder Port,Saint Malo,0,2024/8/5 16:01
671,FRSNR,,Saint-Nazaire,47.278045,-2.199951,France,Feeder Port,Saint-Nazaire,0,2024/8/5 16:01
672,FRSTR,,Strasbourg,48.57434,7.775316,France,Dry Port,Strasbourg,0,2024/8/5 16:01
673,FRTGR,,Treguier,48.786205,-3.221586,France,Feeder Port,Treguier,0,2024/8/5 16:02
674,BASJJ,,Sarajevo,43.8509,18.3846,Bosnia and Herzegovina,Dry Port,Sarajevo,0,2024/8/5 16:02
675,BBBAR,,Barbados,13.10417,-59.631365,Barbados,Feeder Port,Barbados,0,2024/8/5 16:02
676,BBBGI,,Bridgetown,13.10416985,-59.63136865,Barbados,Feeder Port,Bridgetown,0,2024/8/5 16:02
677,BDCGP,,Chittagong,22.273,91.832,Bangladesh,Main Port,Chattogram(Chittagong),0,2024/8/5 16:02
678,BDCHL,,Chalna,22.5003443,89.59050365,Bangladesh,Feeder Port,Mongla,0,2024/8/5 16:02
679,BDCHL,,Chalna,22.5003443,89.59050365,Bangladesh,Feeder Port,Mongla,0,2024/8/5 16:02
680,BDCNA,,Chalna Anchorage,22.5003443,89.59050365,Bangladesh,Feeder Port,Mongla,0,2024/8/5 16:02
681,BDDAC,,Dhaka,23.759,90.3804,Bangladesh,Main Port,Dhaka,0,2024/8/5 16:02
682,BDKAM,,ICD Kamalapur,23.7281082,90.4259429,Bangladesh,Dry Port,Dhaka,0,2024/8/5 16:02
683,BDKHL,,Khulna,22.41666667,89.53333333,Bangladesh,Feeder Port,Khulna,0,2024/8/5 16:02
684,BDMON,,Mongla,22.500345,89.5905,Bangladesh,Feeder Port,Mongla,0,2024/8/5 16:02
685,BDPGN,,Pangaon,23.6554,90.4516,Bangladesh,Feeder Port,Dhaka,0,2024/8/5 16:02
686,BEAAT,,Athus,0,0,Belgium,Dry Port,Athus,1,2024/8/5 16:02
687,BEANR,,Antwerp,51.3027,4.3114,Belgium,Main Port,Antwerpen,0,2024/8/5 16:02
688,BEBRS,,Bruges,51.2298355,3.22447133,Belgium,Feeder Port,Brugge,0,2024/8/5 16:02
689,BEBRU,,Brussel,50.84350205,4.331703185,Belgium,Dry Port,Brussels,0,2024/8/5 16:02
690,BEGNE,,Gent,51.119525,3.7662765,Belgium,Feeder Port,Gent,0,2024/8/5 16:02
691,BEHEM,,Hemiksem,51.13986,4.333849,Belgium,Feeder Port,Hemiksem,0,2024/8/5 16:02
692,BELGE,,Liege,50.633335,5.5666665,Belgium,Feeder Port,Liege,0,2024/8/5 16:02
693,BEMEH,,Meerhout,0,0,Belgium,Dry Port,Meerhout,1,2024/8/5 16:02
694,BENIE,,Nieuwpoort,51.139105,2.7480785,Belgium,Feeder Port,Nieuwpoort,0,2024/8/5 16:02
695,BEOST,,Oostende,51.33055556,2.933055556,Belgium,Feeder Port,Oostende,0,2024/8/5 16:02
696,BEZEE,,Zeebrugge,51.329965,3.205433,Belgium,Main Port,Brugge,0,2024/8/5 16:02
697,BFBOY,,Bobo Dioulasso,11.2053,-4.3096,Burkina Faso,Dry Port,Bobo Dioulasso,0,2024/8/5 16:02
698,BFKOU,,Koudougou,12.2434,-2.3498,Burkina Faso,Dry Port,Koudougou,0,2024/8/5 16:02
699,BFOUA,,Ouagadougou,12.3722,-1.521,Burkina Faso,Dry Port,Ouagadougou,0,2024/8/5 16:02
700,BGBAL,,Balchik,43.4014015,28.16207885,Bulgaria,Feeder Port,Balchik,0,2024/8/5 16:02
701,BGBGS,,Burgas,42.45929525,27.4898348,Bulgaria,Feeder Port,Burgas,0,2024/8/5 16:02
702,BGKAN,,Kavarna,43.411755,28.35408,Bulgaria,,Kavarna,0,2024/8/5 16:02
703,BGNES,,Nessebar,42.66025,27.73335,Bulgaria,Feeder Port,Nessebar,0,2024/8/5 16:02
704,BGOZA,,Montana,43.416667,23.233333,Bulgaria,Dry Port,Montana,0,2024/8/5 16:02
705,BGPDV,,Plovdiv,42.15,24.75,Bulgaria,Dry Port,Plovdiv,0,2024/8/5 16:02
706,BGSOF,,Sofia,42.6667,23.3,Bulgaria,Dry Port,Sofia,0,2024/8/5 16:02
707,BGSOZ,,Sozopol,42.42285,27.69115,Bulgaria,Feeder Port,Sozopol,0,2024/8/5 16:02
708,BGVAR,,Varna,43.193825,27.91081,Bulgaria,Feeder Port,Varna,0,2024/8/5 16:02
709,BHBAH,,Bahrain,26.19783875,50.7114506,Bahrain,Feeder Port,Manama,0,2024/8/5 16:02
710,BHKBS,,Khalifa Bin Salman Port,26.189403,50.714967,Bahrain,Feeder Port,Al Hidd,0,2024/8/5 16:02
711,BHMAN,,Al Manatnah,26.23333333,50.55,Bahrain,Feeder Port,Manama,0,2024/8/5 16:03
712,BHMIN,,Mina Sulman,26.189335,50.608705,Bahrain,Feeder Port,Manama,0,2024/8/5 16:03
713,BHSIT,,Sitra,26.15065,50.6529,Bahrain,,Sitra,0,2024/8/5 16:03
714,BIBUJ,,Bujumbura,-3.3544,29.3761,Burundi,Dry Port,Bujumbura,0,2024/8/5 16:03
715,BJCOO,,Cotonou,6.344,2.428,Benin,Main Port,Cotonou,0,2024/8/5 16:03
716,BJPAR,,Parakou,9.3325,2.6299,Benin,Dry Port,Parakou,0,2024/8/5 16:03
717,BJPTN,,Porto Novo,6.4945,2.634,Benin,Feeder Port,Porto Novo,0,2024/8/5 16:03
718,BNBWN,,Bandar Seri Begawan,4.903,114.938,Brunei,Feeder Port,Bandar Seri Begawan,0,2024/8/5 16:03
719,BNKBT,,Kuala Belait,4.571377,114.1982,Brunei,Feeder Port,Kuala Belait,0,2024/8/5 16:03
720,BNMUA,,Muara,5.0226325,115.07615,Brunei,Main Port,Muara,0,2024/8/5 16:03
721,BNSER,,Seria,4.717,114.317,Brunei,Feeder Port,Seria,0,2024/8/5 16:03
722,BNTSG,,Tanjong Salirong,4.8933333,115.11056,Brunei,Feeder Port,Pulau Selirong,0,2024/8/5 16:03
723,BOCBB,,Cochabamba,-17.383333,-66.166667,Bolivia,Dry Port,Cochabamba,0,2024/8/5 16:03
724,BOLPZ,,La Paz,-16.498,-68.1427,Bolivia,Dry Port,La Paz,0,2024/8/5 16:03
725,BOSRZ,,Santa Cruz,-18.418,-62.345,Bolivia,Dry Port,Santa Cruz de la Sierra,0,2024/8/5 16:03
726,BRABA,,Areia Branca,-4.95,-37.14972222,Brazil,Feeder Port,Areia Branca,0,2024/8/5 16:03
727,BRADR,,Angra Dos Reis,-23.01182745,-44.3106499,Brazil,Feeder Port,Angra Dos Reis,0,2024/8/5 16:03
728,BRAJU,,Aracaju,-10.9300499,-37.0431499,Brazil,Feeder Port,Aracaju,0,2024/8/5 16:03
729,BRATU,,Aratu,-12.783771,-38.48350145,Brazil,Feeder Port,Aratu,0,2024/8/5 16:03
730,BRBEL,,Belem,-1.418517825,-48.48919865,Brazil,Feeder Port,Belem,0,2024/8/5 16:03
731,BRBHZ,,Belo Horizonte,-19.9159,-43.9459,Brazil,Dry Port,Belo Horizonte,0,2024/8/5 16:03
732,BRBPS,,Porto Seguro,-16.38,-39.07,Brazil,Feeder Port,Porto Seguro,0,2024/8/5 16:03
733,BRBSB,,Brasilia,-15.7750837,-48.0772795,Brazil,Dry Port,Brasilia,0,2024/8/5 16:03
734,BRCAB,,Cabedelo,-6.9716,-34.84,Brazil,Feeder Port,Cabedelo,0,2024/8/5 16:03
735,BRCWB,,Curitiba,-25.29,-49.27,Brazil,Dry Port,Curitiba,0,2024/8/5 16:03
736,BRFLO,,Florianopolis,-27.58333333,-48.55,Brazil,,Florianopolis,0,2024/8/5 16:03
737,BRFOR,,Fortaleza,-3.7144805,-38.49648,Brazil,Feeder Port,Fortaleza,0,2024/8/5 16:03
738,BRIBB,,Imbituba,-28.219385,-48.65481,Brazil,Feeder Port,Imbituba,0,2024/8/5 16:03
739,BRIOA,,Itapoa,-26.184,-48.6026,Brazil,Main Port,Itapoa,0,2024/8/5 16:03
740,BRIOS,,Ilheus,-14.7795,-39.03225,Brazil,Feeder Port,Ilheus,0,2024/8/5 16:03
741,BRIQI,,Itaqui,-2.583817,-44.366225,Brazil,Feeder Port,Itaqui,0,2024/8/5 16:03
742,BRITG,,Itaguai,-22.925345,-43.857815,Brazil,Feeder Port,Itaguai,0,2024/8/5 16:03
743,BRITJ,,Itajai,-26.902675,-48.662205,Brazil,Main Port,Itajai,0,2024/8/5 16:03
744,BRJPA,,Joao Pessoa,-7.2,-34.86666667,Brazil,Feeder Port,Joao Pessoa,0,2024/8/5 16:03
745,BRMAO,,Manaus,-3.1440285,-59.99597,Brazil,Feeder Port,Manaus,0,2024/8/5 16:03
746,BRMCP,,Macapa,0.029,-51.0475,Brazil,Feeder Port,Macapa,0,2024/8/5 16:03
747,BRMCZ,,Maceio,-9.683055556,-35.73305556,Brazil,Feeder Port,Maceio,0,2024/8/5 16:03
748,BRMEA,,Macae,-22.383,-41.768735,Brazil,Feeder Port,Macae,0,2024/8/5 16:03
749,BRNAT,,Natal,-5.7637985,-35.20536,Brazil,Feeder Port,Natal,0,2024/8/5 16:03
750,BRNHO,,Novo Hamburgo,-29.6899,-51.1412,Brazil,Dry Port,Novo Hamburgo,0,2024/8/5 16:03
751,BRNTR,,Niteroi,-22.87886,-43.122025,Brazil,Feeder Port,Niteroi,0,2024/8/5 16:03
752,BRNVT,,Navegantes,-26.8970232,-48.6626778,Brazil,Feeder Port,Navegantes,0,2024/8/5 16:03
753,BRPBA,,Parnaiba,-2.9,-41.78363333,Brazil,Dry Port,Parnaiba,0,2024/8/5 16:03
754,BRPDU,,Ponta Do Ubu,-20.78333,-40.58333,Brazil,Feeder Port,Guarapari,0,2024/8/5 16:03
755,BRPEC,,Pecem,-3.532126,-38.80311,Brazil,Feeder Port,Pecem,0,2024/8/5 16:03
756,BRPET,,Pelotas,-31.7830556,-52.316667,Brazil,Feeder Port,Pelotas,0,2024/8/5 16:03
757,BRPNG,,Paranagua,-25.50195,-48.512,Brazil,Main Port,Paranagua,0,2024/8/5 16:04
758,BRPOA,,Porto Alegre,-30.02511,-51.26152,Brazil,Feeder Port,Porto Alegre,0,2024/8/5 16:04
759,BRPOR,,Portocel,-19.847,-40.0545,Brazil,Feeder Port,Barra do Riacho,0,2024/8/5 16:04
760,BRQCV,,Guarulhos,-23.4444082,-46.535467,Brazil,Dry Port,Guarulhos,0,2024/8/5 16:04
761,BRQNS,,Canoas,-29.9139,-51.1902,Brazil,Dry Port,Canoas,0,2024/8/5 16:04
762,BRREC,,Recife,-8.0556015,-34.870505,Brazil,Feeder Port,Recife,0,2024/8/5 16:04
763,BRRIG,,Rio Grande,-32.0902,-52.1315,Brazil,Main Port,Rio Grande,0,2024/8/5 16:04
764,BRRIO,,Rio de Janeiro,-22.849815,-43.17784,Brazil,Main Port,Rio de Janeiro,0,2024/8/5 16:04
765,BRSFS,,Sao Francisco Do Sul,-26.233,-48.617,Brazil,Feeder Port,Sao Francisco Do Sul,0,2024/8/5 16:04
766,BRSLM,,Sao Luiz de Maranhao,-2.543,-44.279,Brazil,Feeder Port,Sao Luis,0,2024/8/5 16:04
767,BRSLZ,,Sao Luis,-2.532,-44.294,Brazil,Feeder Port,Sao Luis,0,2024/8/5 16:04
768,BRSPA,,Sao Paulo,-23.553,-46.635,Brazil,Dry Port,Sao Paulo,0,2024/8/5 16:04
769,BRSPB,,Sepetiba,-22.960995,-43.735545,Brazil,Feeder Port,Rio de Janeiro,0,2024/8/5 16:04
770,BRSSA,,Salvador,-12.96113,-38.50755,Brazil,Feeder Port,Salvador,0,2024/8/5 16:04
771,ECBHA,,Bahia de Caraquez,-0.6176,-80.4282,Ecuador,Feeder Port,Bahia de Caraquez,0,2024/8/5 16:04
772,ECBLT,,Balao Terminal,0.9587,-79.6904,Ecuador,Feeder Port,Balao Terminal,0,2024/8/5 16:04
773,ECCUE,,Cuenca,-2.897414,-79.004481,Ecuador,Dry Port,Cuenca,0,2024/8/5 16:04
774,ECESM,,Esmeraldas,1.01079485,-79.667,Ecuador,Feeder Port,Esmeraldas,0,2024/8/5 16:04
775,ECGYE,,Guayaquil,-2.256039,-79.94373,Ecuador,Main Port,Guayaquil,0,2024/8/5 16:04
776,ECLLD,,"La Libertad,EC",-2.213601,-80.906165,Ecuador,Feeder Port,La Libertad,0,2024/8/5 16:04
777,ECMEC,,"Manta,EC",-0.93555585,-80.718955,Ecuador,Feeder Port,Manta,0,2024/8/5 16:04
778,ECPBO,,Puerto Bolivar,-3.243,-80.013,Ecuador,Feeder Port,Puerto Bolivar,0,2024/8/5 16:04
779,ECSLR,,San Lorenzo,1.25,-78.8331,Ecuador,Feeder Port,San Lorenzo,0,2024/8/5 16:04
780,ECUIO,,Quito,-0.228,-78.5097,Ecuador,Dry Port,Quito,0,2024/8/5 16:04
781,EEMUU,,Muuga,59.4955,24.9535,Estonia,Feeder Port,Tallinn,0,2024/8/5 16:04
782,EENAJ,,Narva Joesuu,59.4607,28.049895,Estonia,,Narva,0,2024/8/5 16:04
783,EEPRN,,Parnu,58.383333,24.483333,Estonia,Feeder Port,Parnu,0,2024/8/5 16:04
784,EESLM,,Sillamae,59.416,27.7295,Estonia,Feeder Port,Sillamae,0,2024/8/5 16:04
785,EETLL,,Tallinn,59.446,24.768,Estonia,Feeder Port,Tallinn,0,2024/8/5 16:04
786,EGAAC,,El Arish,31.06666667,33.83333333,Egypt,Feeder Port,El Arish,0,2024/8/5 16:04
787,EGADA,,Adabiya,29.88188075,32.4716797,Egypt,Feeder Port,Adabiya,0,2024/8/5 16:04
788,EGAIS,,Ain Sukhna,29.647615,32.360645,Egypt,Feeder Port,Ain Sukhna,0,2024/8/5 16:04
789,EGALY,,Alexandriaxa0Oldxa0Port,31.184245,29.875605,Egypt,Feeder Port,Alexandria,0,2024/8/5 16:04
790,EGASW,,Aswan,24.093,32.895,Egypt,Dry Port,Aswan,0,2024/8/5 16:04
791,EGAZA,,Abu Zenimah,29.0496,33.1087,Egypt,Feeder Port,Abu Zeniman,0,2024/8/5 16:04
792,EGCAI,,Cairo,30.0459,31.2357,Egypt,Feeder Port,Cairo,0,2024/8/5 16:04
793,EGDAM,,Damietta,31.46799945,31.7609997,Egypt,Main Port,Damietta,0,2024/8/5 16:04
794,EGDEK,,Dekheila,31.143995,29.79964,Egypt,Feeder Port,Alexandria,0,2024/8/5 16:04
795,EGEDK,,Alexandria(New),31.143995,29.79964,Egypt,Feeder Port,Alexandria,0,2024/8/5 16:04
796,EGHRG,,Hurghada,27.23685,33.826905,Egypt,Feeder Port,Hurghada,0,2024/8/5 16:04
797,EGISM,,Ismailia,30.60055,32.26884,Egypt,Feeder Port,Ismailia,0,2024/8/5 16:04
798,EGKOS,,Kosseir,26.1,34.28305556,Egypt,Feeder Port,Kosseir,0,2024/8/5 16:04
799,EGMEH,,Mersa El Hamra,30.96666667,28.86666667,Egypt,Feeder Port,Mersa El Alamein,0,2024/8/5 16:05
800,EGMMA,,Mersa Matruh,31.36666667,27.23333333,Egypt,Feeder Port,Mersa Matruh,0,2024/8/5 16:05
801,EGPIB,,Port Ibrahim,29.96666667,32.54972222,Egypt,Feeder Port,Suez,0,2024/8/5 16:05
802,EGPSD,,Portxa0Said,31.2659,32.2929,Egypt,Main Port,Port Said,0,2024/8/5 16:05
803,EGPSE,,Port Said East,31.24478,32.323,Egypt,Feeder Port,Port Said,0,2024/8/5 16:05
804,EGPSW,,Port Said West,31.24478,32.323,Egypt,Feeder Port,Port Said,0,2024/8/5 16:05
805,EGPTE,,Port Tewfik,29.96666667,32.54972222,Egypt,Feeder Port,Suez,0,2024/8/5 16:05
806,EGRAG,,Ras Gharib,28.35,33.1,Egypt,Feeder Port,Ras Gharib,0,2024/8/5 16:05
807,EGRSR,,Ras Shukheir,28.134065,33.27969,Egypt,Feeder Port,Ras Shukheir,0,2024/8/5 16:05
808,EGSGA,,Safaga,26.745305,33.950585,Egypt,Feeder Port,Safaga,0,2024/8/5 16:05
809,EGSKR,,Sidi Kerir,31.09667,29.62232,Egypt,Feeder Port,Alexandria,0,2024/8/5 16:05
810,EGSOK,,Sokhna,29.647615,32.360645,Egypt,Main Port,Sokhna,0,2024/8/5 16:05
811,EGSOS,,Sosdi,29.9038,30.9076,Egypt,Dry Port,Giza,0,2024/8/5 16:05
812,EGSUZ,,El Suweis,29.9667,32.55,Egypt,Feeder Port,Suez,0,2024/8/5 16:05
813,EGWDF,,Wadi Feiran,28.73333333,33.21666667,Egypt,Feeder Port,Wadi Feiran,0,2024/8/5 16:05
814,ERASA,,Assab,12.99544525,42.74119565,Eritrea,Feeder Port,Assab,0,2024/8/5 16:05
815,ERMSW,,Massawa,15.608405,39.46306,Eritrea,Feeder Port,Massawa,0,2024/8/5 16:05
816,ETADD,,Addis Ababa,9.0072,38.735,Ethiopia,Dry Port,Addis Ababa,0,2024/8/5 16:05
817,ETDIR,,Dire Dawa,9.7253,41.8524,Ethiopia,Dry Port,Dire Dawa,0,2024/8/5 16:05
818,ETJIM,,Jimma,7.7926,36.8427,Ethiopia,Dry Port,Jimma,0,2024/8/5 16:05
819,ETKOM,,Kombolcha,11.0113,39.7266,Ethiopia,Dry Port,Kombolcha,0,2024/8/5 16:05
820,ETMDP,,Modjo,8.5936718,39.097542,Ethiopia,Dry Port,Modjo,0,2024/8/5 16:05
821,CDBNW,,Banana,-5.999301675,12.3986721,Democratic Republic of the Congo,Feeder Port,Banana,0,2024/8/5 16:05
822,CDBOA,,Boma,-5.859879495,13.05442955,Democratic Republic of the Congo,Feeder Port,Boma,0,2024/8/5 16:05
823,CDBUK,,Bukavu,-2.5068,28.8419,Democratic Republic of the Congo,Dry Port,Bukavu,0,2024/8/5 16:05
824,CDFIH,,Kinshasa,-4.3255,15.3467,Democratic Republic of the Congo,Dry Port,Kinshasa,0,2024/8/5 16:05
825,CDGOM,,Goma,-1.6704,29.2312,Democratic Republic of the Congo,Dry Port,Goma,0,2024/8/5 16:05
826,CDKWZ,,Kolwezi,-10.716667,25.466667,Democratic Republic of the Congo,Dry Port,Kolwezi,0,2024/8/5 16:05
827,CDLKS,,Likasi,-10.983333,26.733333,Democratic Republic of the Congo,Dry Port,Likasi,0,2024/8/5 16:05
828,CDLUB,,Lubumbashi,-11.6764,27.4576,Democratic Republic of the Congo,Dry Port,Lubumbashi,0,2024/8/5 16:05
829,CDMAT,,Matadi,-5.82,13.452,Democratic Republic of the Congo,Feeder Port,Matadi,0,2024/8/5 16:05
830,DJJIB,,Djibouti,11.60146,43.11104,Djibouti,Main Port,Djibouti City,0,2024/8/5 16:05
831,DKAAB,,Abenraa,55.03973195,9.43089533,Denmark,Feeder Port,Abenraa,0,2024/8/5 16:05
832,DKAAL,,Alborg,57.06949995,9.985999565,Denmark,Feeder Port,Aalborg,0,2024/8/5 16:05
833,DKAER,,Aeroskobing,54.8920498,10.4132886,Denmark,Feeder Port,Aeroskobing,0,2024/8/5 16:05
834,DKAHS,,Aarhus,56.1539993,10.2295003,Denmark,Feeder Port,Aarhus,0,2024/8/5 16:06
835,DKALL,,Allinge,55.279,14.803,Denmark,Feeder Port,Allinge,0,2024/8/5 16:06
836,DKASS,,Assens,55.26849935,9.887500285,Denmark,Feeder Port,Assens,0,2024/8/5 16:06
837,DKBHM,,Bandholm,54.83816335,11.4913516,Denmark,Feeder Port,Bandholm,0,2024/8/5 16:06
838,DKBOG,,Bogense,55.5669,10.094,Denmark,Feeder Port,Bogense,0,2024/8/5 16:06
839,DKCPH,,Copenhagen,55.70100025,12.60899975,Denmark,Feeder Port,Copenhagen,0,2024/8/5 16:06
840,DKEBE,,Ebeltoft,56.156,10.66825,Denmark,Feeder Port,Ebeltoft,0,2024/8/5 16:06
841,DKELS,,Elsinore,56.03305556,12.61666667,Denmark,Feeder Port,Helsinger,0,2024/8/5 16:06
842,DKESB,,Esbjerg,55.466,8.442,Denmark,Feeder Port,Esbjerg,0,2024/8/5 16:06
843,DKFAA,,Faaborg,55.094,10.235,Denmark,Feeder Port,Faaborg,0,2024/8/5 16:06
844,DKFDH,,Frederikshavn,57.4365,10.542,Denmark,Feeder Port,Frederikshavn,0,2024/8/5 16:06
845,DKFLS,,Fakse Ladeplads,55.21666667,12.16666667,Denmark,Feeder Port,Fakse Ladeplads,0,2024/8/5 16:06
846,DKFRC,,Fredericia,55.5565,9.748,Denmark,Feeder Port,Fredericia,0,2024/8/5 16:06
847,DKFSD,,Frederikssund,55.86666667,12.08333333,Denmark,Feeder Port,Frederikssund,0,2024/8/5 16:06
848,DKFSK,,Frederiksvark,56.01666667,12.01666667,Denmark,Feeder Port,Frederiksvark,0,2024/8/5 16:06
849,DKGRA,,Grasten,54.88333333,9.55,Denmark,Feeder Port,Grasten,0,2024/8/5 16:06
850,DKGRE,,Grenaa,56.4125,10.9255,Denmark,Feeder Port,Grenaa,0,2024/8/5 16:06
851,DKGUL,,Gulfhavn,55.2,11.26666667,Denmark,Feeder Port,Magleby,0,2024/8/5 16:06
852,DKHAS,,Hasle,55.1855,14.699,Denmark,Feeder Port,Hasle,0,2024/8/5 16:06
853,DKHIR,,Hirtshals,57.5935,9.9685,Denmark,Feeder Port,Hirtshals,0,2024/8/5 16:06
854,DKHLS,,Helsingor,56.03332,12.617385,Denmark,Feeder Port,Helsinger,0,2024/8/5 16:06
855,DKHOB,,Hobro,56.63333333,9.8,Denmark,Feeder Port,Hobro,0,2024/8/5 16:06
856,DKHOL,,Holbaek,55.721,11.717,Denmark,Feeder Port,Holbaek,0,2024/8/5 16:06
857,DKHOR,,Horsens,55.853,9.8665,Denmark,Feeder Port,Horsens,0,2024/8/5 16:06
858,DKHSD,,Hadsund,56.71666667,10.2,Denmark,Feeder Port,Hadsund,0,2024/8/5 16:06
859,DKHSV,,Haderslev,55.25,9.516666667,Denmark,Feeder Port,Haderslev,0,2024/8/5 16:06
860,DKKAL,,Kalundborg,55.6705,11.0885,Denmark,Feeder Port,Kalundborg,0,2024/8/5 16:06
861,DKKAR,,Karrebaeksminde,55.18305556,11.65,Denmark,Feeder Port,Karrebaeksminde,0,2024/8/5 16:06
862,DKKER,,Kerteminde,55.45,10.66667,Denmark,Feeder Port,Kerteminde,0,2024/8/5 16:06
863,DKKOG,,Koge,55.454,12.195,Denmark,Feeder Port,Koge,0,2024/8/5 16:06
864,DKKOL,,Kolding,55.491,9.489,Denmark,Feeder Port,Kolding,0,2024/8/5 16:06
865,DKKOR,,Korsor,55.332,11.1435,Denmark,Feeder Port,Korsor,0,2024/8/5 16:06
866,DKKYN,,Kyndby,55.81666667,11.88333333,Denmark,Feeder Port,Kyndby,0,2024/8/5 16:07
867,DKLEM,,Lemvig,56.5585,8.3035,Denmark,Feeder Port,Lemvig,0,2024/8/5 16:07
868,DKMAR,,Mariager,56.64972222,9.983055556,Denmark,Feeder Port,Mariager,0,2024/8/5 16:07
869,DKMID,,Middelfart,55.5,9.733333333,Denmark,Feeder Port,Middelfart,0,2024/8/5 16:07
870,DKMTL,,Marstal,54.853,10.5235,Denmark,Feeder Port,Marstal,0,2024/8/5 16:07
871,DKNAE,,Naestved,55.2253,11.7558,Denmark,Feeder Port,Naestved,0,2024/8/5 16:07
872,DKNBG,,Nykobing(Sjalland),55.9473,11.7432,Denmark,Feeder Port,Nykobing(Sjalland),0,2024/8/5 16:07
873,DKNEK,,Nekso,55.0615,15.1385,Denmark,,Nekso,0,2024/8/5 16:07
874,DKNKG,,Nykobing(Mors),56.7942,8.8675005,Denmark,Feeder Port,Nykobing(Mors),0,2024/8/5 16:07
875,DKNKV,,Nakskov,54.831,11.124,Denmark,Feeder Port,Nakskov,0,2024/8/5 16:07
876,DKNYB,,Nyborg,55.2985,10.8135,Denmark,Feeder Port,Nyborg,0,2024/8/5 16:07
877,DKNYK,,Nykobing(Falster),54.76666667,11.86666667,Denmark,Feeder Port,Nykobing(Falster),0,2024/8/5 16:07
878,DKODE,,Odense,55.41667,10.38333,Denmark,Dry Port,Odense,0,2024/8/5 16:07
879,DKORE,,Orehoved,54.95,11.84972222,Denmark,Feeder Port,Orehoved,0,2024/8/5 16:07
880,DKRAN,,Randers,56.4595,10.0515,Denmark,Feeder Port,Randers,0,2024/8/5 16:07
881,DKROD,,Rodbyhavn,54.654,11.3495,Denmark,Feeder Port,Rodbyhavn,0,2024/8/5 16:07
882,DKRON,,Ronne,55.0985,14.69,Denmark,Feeder Port,Ronne,0,2024/8/5 16:07
883,DKRUD,,Rudkobing,54.93894,10.705055,Denmark,Feeder Port,Rudkobing,0,2024/8/5 16:07
884,DKRVG,,Rodvig,55.25,12.383333,Denmark,Feeder Port,Rodvig,0,2024/8/5 16:07
885,DKSAK,,Sakskobing,54.7973,11.63333,Denmark,Feeder Port,Sakskobing,0,2024/8/5 16:07
886,DKSKI,,Skive,56.5667,9.05,Denmark,Feeder Port,Skive,0,2024/8/5 16:07
887,DKSKK,,Skaerbaek,55.517,9.617,Denmark,Feeder Port,Skaerbaek,0,2024/8/5 16:07
888,DKSKN,,Skagen,57.718,10.592,Denmark,Feeder Port,Skagen,0,2024/8/5 16:07
889,DKSKR,,Skaelskor,55.26667,11.283333,Denmark,Feeder Port,Skaelskor,0,2024/8/5 16:07
890,DKSON,,Sonderborg,54.91667,9.78333,Denmark,Feeder Port,Sonderborg,0,2024/8/5 16:07
891,DKSTE,,Stege,54.98333,12.28333,Denmark,Feeder Port,Stege,0,2024/8/5 16:07
892,DKSTP,,Stubbekobing,54.8927,12.04382,Denmark,Feeder Port,Stubbekobing,0,2024/8/5 16:07
893,DKSTR,,Struer,56.5,8.583056,Denmark,Feeder Port,Struer,0,2024/8/5 16:07
894,DKSVA,,Svaneke,55.1345,15.1475,Denmark,Feeder Port,Svaneke,0,2024/8/5 16:08
895,DKSVE,,Svendborg,55.059,10.618,Denmark,Feeder Port,Svendborg,0,2024/8/5 16:08
896,DKTBH,,Tuborg Havn,55.73472,12.5825,Denmark,Feeder Port,Hellerup,0,2024/8/5 16:08
897,DKTLV,,Taulov,55.54701,9.640479,Denmark,Feeder Port,Taulov,0,2024/8/5 16:08
898,DKVEJ,,Vejle,55.7045,9.548,Denmark,Feeder Port,Vejle,0,2024/8/5 16:08
899,DKVOR,,Vordingborg,54.9936,11.8986,Denmark,Feeder Port,Vordingborg,0,2024/8/5 16:08
900,DMPOR,,Portsmouth,15.57707,-61.4571,Dominica,Feeder Port,Portsmouth,0,2024/8/5 16:08
901,DMRSU,,Roseau,15.307265,-61.390145,Dominica,Feeder Port,Roseau,0,2024/8/5 16:08
902,DOAZU,,Azua,18.3442621,-70.83615495,Dominican Republic,Feeder Port,Azua,0,2024/8/5 16:08
903,DOBCA,,Boca Chica,18.4528,-69.6077,Dominican Republic,Feeder Port,Boca Chica,0,2024/8/5 16:08
904,DOBRX,,Barahona,18.209945,-71.08704,Dominican Republic,Feeder Port,Barahona,0,2024/8/5 16:08
905,DOCAU,,Caucedo,18.42541,-69.6285,Dominican Republic,Main Port,Caucedo,0,2024/8/5 16:08
906,DOCRO,,Cabo Rojo,17.92292405,-71.66132735,Dominican Republic,Feeder Port,Cabo Rojo,0,2024/8/5 16:08
907,DOHAI,,Rio Haina,18.417,-70.019,Dominican Republic,Feeder Port,Bajos de Haina,0,2024/8/5 16:08
908,DOLRM,,La Romana,18.41571615,-68.95800785,Dominican Republic,Feeder Port,La Romana,0,2024/8/5 16:08
909,DOMAN,,"Manzanillo,DO",19.706944,-71.743056,Dominican Republic,Feeder Port,Manzanillo,0,2024/8/5 16:08
910,DOPAL,,Palenque,18.2,-70.18333333,Dominican Republic,Feeder Port,Sabana Grande de Palenque,0,2024/8/5 16:08
911,DOPOP,,Puerto Plata,19.802,-70.70054,Dominican Republic,Feeder Port,Puerto Plata,0,2024/8/5 16:08
912,DOSAM,,Samana,19.197825,-69.329265,Dominican Republic,Feeder Port,Samana,0,2024/8/5 16:08
913,DOSCZ,,Sanchez,19.223825,-69.61459,Dominican Republic,Feeder Port,Sanchez,0,2024/8/5 16:08
914,DOSDQ,,Santo Domingo,18.46565,-69.8835,Dominican Republic,Feeder Port,Santo Domingo,0,2024/8/5 16:08
915,HKHKG,,Hong Kong,22.31081,114.16815,"Hong Kong,China",Main Port,Hong Kong,0,2024/8/5 16:14
916,HKVIC,,Victoria Harbour,22.2886,114.1706,"Hong Kong,China",Feeder Port,Hong Kong,0,2024/8/5 16:14
917,HNAPA,,Amapala,13.2949157,-87.65304565,Honduras,,Amapala,0,2024/8/5 16:14
918,HNCLM,,Choloma,15.5933,-87.9449,Honduras,Dry Port,Choloma,0,2024/8/5 16:14
919,HNLCE,,La Ceiba,15.787835,-86.783835,Honduras,Feeder Port,La Ceiba,0,2024/8/5 16:15
920,HNPCA,,Puerto Castilla,16.00613,-85.962995,Honduras,Feeder Port,Puerto Castilla,0,2024/8/5 16:15
921,HNPCR,,Puerto Cortes,15.83528,-87.93837,Honduras,Feeder Port,Puerto Cortes,0,2024/8/5 16:15
922,HNROI,,Roatan Island,16.31734,-86.526645,Honduras,Feeder Port,Roatan,0,2024/8/5 16:15
923,HNSAP,,San Pedro Sula,15.506,-88.0266,Honduras,Dry Port,San Pedro Sula,0,2024/8/5 16:15
924,HNSLO,,San Lorenzo,13.40156,-87.426065,Honduras,Feeder Port,San Lorenzo,0,2024/8/5 16:15
925,HNTEA,,Tela,15.784615,-87.458555,Honduras,Feeder Port,Tela,0,2024/8/5 16:15
926,HNTGU,,Tegucigalpa,14.094,-87.204,Honduras,Dry Port,Tegucigalpa,0,2024/8/5 16:15
927,HTACA,,Les Cayes,18.190505,-73.744615,Haiti,Feeder Port,Les Cayes,0,2024/8/5 16:15
928,HTCAP,,Cap Haitien,19.75448325,-72.19703675,Haiti,Feeder Port,Cap-Haitien,0,2024/8/5 16:15
929,HTFLI,,Fort Liberte,19.666675,-71.82432,Haiti,,Fort Liberte,0,2024/8/5 16:15
930,HTGVS,,Gonaives,19.44446,-72.70808,Haiti,Feeder Port,Gonaives,0,2024/8/5 16:15
931,HTJER,,Jeremie,18.65,-74.11666667,Haiti,Feeder Port,Jeremie,0,2024/8/5 16:15
932,HTLFT,,Lafiteau,18.6905,-72.3571,Haiti,Feeder Port,Port-au-Prince,0,2024/8/5 16:15
933,HTMIR,,Miragoane,18.46666667,-73.09722222,Haiti,Feeder Port,Miragoane,0,2024/8/5 16:15
934,HTPAP,,Port Au Prince,18.558065,-72.36866,Haiti,Feeder Port,Port-au-Prince,0,2024/8/5 16:15
935,JMBLR,,Black River,18.01666667,-77.88305556,Jamaica,,Black River,0,2024/8/5 16:17
936,JMKIN,,Kingston,17.96845,-76.785055,Jamaica,Main Port,Kingston,0,2024/8/5 16:17
937,JMLUC,,Lucea,18.4443,-78.1626,Jamaica,Feeder Port,Lucea,0,2024/8/5 16:17
938,JMMBJ,,Montego Bay,18.5,-77.93333333,Jamaica,Feeder Port,Montego Bay,0,2024/8/5 16:17
939,JMORB,,Ocho Rios Bay,18.41033,-77.11097,Jamaica,Feeder Port,Ocho Rios,0,2024/8/5 16:17
940,JMPES,,Port Esquivel,17.88305556,-77.13305556,Jamaica,Feeder Port,Port Esquivel,0,2024/8/5 16:17
941,JMPKA,,Port Kaiser,17.8666667,-77.616667,Jamaica,Feeder Port,Port Kaiser,0,2024/8/5 16:17
942,JMPMO,,Port Morant,17.8729,-76.414,Jamaica,Feeder Port,Morant Bay,0,2024/8/5 16:17
943,JMPOT,,Port Antonio,18.18202,-76.457035,Jamaica,Feeder Port,Port Antonio,0,2024/8/5 16:17
944,JMPRH,,Port Rhoades,18.46398,-77.40756,Jamaica,Feeder Port,Discovery Bay,0,2024/8/5 16:17
945,JMPRO,,Port Royal,17.935,-76.8425,Jamaica,Feeder Port,Port Royal,0,2024/8/5 16:17
946,JMRBU,,Rio Bueno,18.471385,-77.454815,Jamaica,Feeder Port,Rio Bueno,0,2024/8/5 16:17
947,JMRCP,,Rocky Point,18.11,-77.05,Jamaica,Feeder Port,Rocky Point,0,2024/8/5 16:17
948,JMSLM,,Savanna La Mar,18.207,-78.17,Jamaica,Feeder Port,Savanna La Mar,0,2024/8/5 16:17
949,JOAMM,,Amman,31.9458,35.9274,Jordan,Dry Port,Amman,0,2024/8/5 16:17
950,JOAQJ,,Aqaba,29.519875,34.99279,Jordan,Main Port,Aqaba,0,2024/8/5 16:17
951,JPABA,,Abashiri,44.01380345,144.288414,Japan,Feeder Port,Abashiri,0,2024/8/5 16:17
952,JPABU,,Aburatsu,31.57648945,131.403824,Japan,Feeder Port,Aburatsu,0,2024/8/5 16:18
953,JPAIN,,Ainoura,33.19259,129.65405,Japan,Feeder Port,Ainoura,0,2024/8/5 16:18
954,JPAIO,,Aioi,34.79422,134.46525,Japan,Feeder Port,Aioi,0,2024/8/5 16:18
955,JPAMA,,Amagasaki,34.6928539,135.390266,Japan,Feeder Port,Amagasaki,0,2024/8/5 16:18
956,JPANA,,Anan,33.8764,134.6083,Japan,Feeder Port,Anan,0,2024/8/5 16:18
957,JPAOM,,Aomori,40.8425808,140.73542,Japan,Feeder Port,Aomori,0,2024/8/5 16:18
958,JPATS,,Atsumi,38.6280193,139.5887225,Japan,Feeder Port,Atsumi,0,2024/8/5 16:18
959,JPAXT,,Akita,39.75728,140.055,Japan,Feeder Port,Akita,0,2024/8/5 16:18
960,JPBEP,,Beppu,33.301157,131.506775,Japan,Feeder Port,Beppu,0,2024/8/5 16:18
961,JPCHB,,Chiba,35.5946922,140.1040265,Japan,Feeder Port,Chiba City,0,2024/8/5 16:18
962,JPCHI,,Chita,34.720665,136.967407,Japan,Feeder Port,Chita,0,2024/8/5 16:18
963,JPETA,,Etajima,34.16666667,132.5166667,Japan,Feeder Port,Etajima,0,2024/8/5 16:18
964,JPFKY,,Fukuyama,34.45462,133.43245,Japan,Feeder Port,Fukuyama,0,2024/8/5 16:18
965,JPFNA,,Funakawa,40.8595,140.3953,Japan,Feeder Port,Funakawa,0,2024/8/5 16:18
966,JPFUK,,Fukuoka,33.61666667,130.45,Japan,Feeder Port,Fukuoka,0,2024/8/5 16:18
967,JPFUN,,Funabashi,35.667335,139.95905,Japan,Feeder Port,Funabashi,0,2024/8/5 16:18
968,JPFUS,,Toyama Shinko,36.7851,137.0888,Japan,Feeder Port,Toyama,0,2024/8/5 16:18
969,JPGAM,,Gamagori,34.81599,137.2315,Japan,Feeder Port,Gamagori,0,2024/8/5 16:18
970,JPHAG,,Hagi,34.435515,131.41245,Japan,Feeder Port,Hagi,0,2024/8/5 16:18
971,JPHAN,,Hannan,34.477375,135.3654,Japan,Feeder Port,Hannan,0,2024/8/5 16:18
972,JPHHE,,Hachinohe,40.55476,141.5197,Japan,Feeder Port,Hachinohe,0,2024/8/5 16:18
973,JPHHR,,Higashiharima,34.75259,134.7632,Japan,Feeder Port,Kobe,0,2024/8/5 16:18
974,JPHIB,,Hibikinada,33.93305556,130.8330556,Japan,Feeder Port,Kitakyushu,0,2024/8/5 16:18
975,JPHIJ,,Hiroshima,34.347395,132.41955,Japan,Feeder Port,Hiroshima,0,2024/8/5 16:18
976,JPHIK,,Hikari,33.95,131.9330556,Japan,Feeder Port,Hikari,0,2024/8/5 16:18
977,JPHIM,,Himeji,34.78333333,134.7666667,Japan,Feeder Port,Himeji,0,2024/8/5 16:18
978,JPHIR,,Hirao,33.91666667,131.9833333,Japan,Feeder Port,Hirao,0,2024/8/5 16:18
979,JPHIS,,Hisanohama,37.14777,141.00325,Japan,Feeder Port,Iwaki,0,2024/8/5 16:18
980,JPHIT,,Hitachinaka,36.422,140.6255,Japan,Feeder Port,Hitachinaka,0,2024/8/5 16:18
981,JPHKD,,Hakodate,41.790255,140.70595,Japan,Feeder Port,Hakodate,0,2024/8/5 16:18
982,JPHKT,,Hakata,33.6283,130.3748,Japan,Feeder Port,Hakata,0,2024/8/5 16:18
983,JPHMD,,Hamada,34.875195,132.0501,Japan,Feeder Port,Hamada,0,2024/8/5 16:18
984,JPHSM,,Hososhima,32.43605,131.66025,Japan,Feeder Port,Hososhima,0,2024/8/5 16:18
985,JPHTA,,Hirohata,34.8032,135.4035,Japan,Feeder Port,Itami,0,2024/8/5 16:18
986,JPHTC,,Hitachi,36.489835,140.62375,Japan,Feeder Port,Hitachi,0,2024/8/5 16:18
987,JPIHO,,Iho,34.75,134.8,Japan,Feeder Port,Takasago,0,2024/8/5 16:18
988,JPIMA,,Imabari,34.06283,133.0149,Japan,Feeder Port,Imabari,0,2024/8/5 16:18
989,JPINN,,Innoshima,34.287025,133.1861,Japan,Feeder Port,Innoshima,0,2024/8/5 16:18
990,JPIRI,,Imari,33.303265,129.8438,Japan,Feeder Port,Imari,0,2024/8/5 16:18
991,JPISH,,Ishinomaki,38.409,141.2915,Japan,Feeder Port,Ishinomaki,0,2024/8/5 16:18
992,JPISI,,Ishigaki,24.3392,124.15555,Japan,Feeder Port,Ishigaki,0,2024/8/5 16:19
993,JPIWK,,Iwakuni,34.157835,132.24175,Japan,Feeder Port,Iwakuni,0,2024/8/5 16:19
994,JPIYM,,Iyomishima,33.98,133.54,Japan,Feeder Port,Iyomishima,0,2024/8/5 16:19
995,JPIZU,,Izumisano,34.46666667,135.3305556,Japan,,Izumisano,0,2024/8/5 16:19
996,JPKAI,,Kainan,34.11666667,135.1997222,Japan,Feeder Port,Kainan,0,2024/8/5 16:19
997,JPKAK,,Kakogawa,34.720525,134.8153,Japan,Feeder Port,Kakogawa,0,2024/8/5 16:19
998,JPKAM,,Kamaishi,39.255285,141.9058,Japan,Feeder Port,Kamaishi,0,2024/8/5 16:19
999,JPKAN,,Kanmon,33.962815,131.009,Japan,Feeder Port,Kanmon,0,2024/8/5 16:19
1000,JPKAR,,Karatsu,33.46746,129.9614,Japan,Feeder Port,Karatsu,0,2024/8/5 16:19
1001,JPKAW,,Kawasaki,35.51636,139.7557,Japan,Feeder Port,Kawasaki,0,2024/8/5 16:19
1002,JPKDA,,Kanda,33.7937,131.01895,Japan,Feeder Port,Kanda,0,2024/8/5 16:19
1003,JPKII,,Kiire,31.38753,130.55,Japan,Feeder Port,Kiire,0,2024/8/5 16:19
1004,JPKIJ,,"Niigata,JP",37.977155,139.1701,Japan,Feeder Port,Niigata,0,2024/8/5 16:19
1005,JPKIK,,Kikuma,34.03314,132.83555,Japan,Feeder Port,Kikuma,0,2024/8/5 16:19
1006,JPKIN,,Kinuura,34.851985,136.95025,Japan,Feeder Port,Kinuura,0,2024/8/5 16:19
1007,JPKKJ,,Kitakyushu,33.940015,130.7842,Japan,Feeder Port,Kitakyushu,0,2024/8/5 16:19
1008,JPKMA,,Kashima,35.909345,140.6833,Japan,Feeder Port,Kashima,0,2024/8/5 16:19
1009,JPKNZ,,Kanazawa,36.6083,136.60255,Japan,Feeder Port,Kanazawa City,0,2024/8/5 16:19
1010,JPKOC,,Kochi,33.539025,133.56585,Japan,Feeder Port,Kochi,0,2024/8/5 16:19
1011,JPKOE,,Kawanoe,33.96666667,133.5666667,Japan,Feeder Port,Shikoku Chuo,0,2024/8/5 16:19
1012,JPKOJ,,Kagoshima,31.53542,130.5575,Japan,Feeder Port,Kagoshima,0,2024/8/5 16:19
1013,JPKOK,,Kokura,33.895645,130.8917,Japan,Feeder Port,Kitakyushu,0,2024/8/5 16:19
1014,JPKOM,,Komatsushima,33.99867,134.6105,Japan,Feeder Port,Komatsushima,0,2024/8/5 16:19
1015,JPKSA,,Kasaoka,34.49719,133.5076,Japan,Feeder Port,Kasaoka,0,2024/8/5 16:19
1016,JPKUD,,Kudamatsu,34,131.8497222,Japan,Feeder Port,Kudamatsu,0,2024/8/5 16:19
1017,JPKUH,,Kushiro,42.98726,144.3606,Japan,Feeder Port,Kushiro,0,2024/8/5 16:19
1018,JPKUM,,Kumamoto,32.76418,130.60175,Japan,Feeder Port,Kumamoto,0,2024/8/5 16:19
1019,JPKUR,,Kure,34.22979,132.56455,Japan,Feeder Port,Kure,0,2024/8/5 16:19
1020,JPKWA,,Kanokawa,34.189515,132.4411,Japan,Feeder Port,Kanokawa,0,2024/8/5 16:19
1021,JPKWN,,Kin Wan,26.45,127.9666667,Japan,Feeder Port,Kin Wan,0,2024/8/5 16:19
1022,JPKZU,,Kisarazu,35.369385,139.87935,Japan,Feeder Port,Kisarazu,0,2024/8/5 16:19
1023,JPMAI,,Maizuru,35.47968,135.3586,Japan,Feeder Port,Maizuru,0,2024/8/5 16:19
1024,JPMAR,,Marugame,34.29583,133.7872,Japan,Feeder Port,Marugame,0,2024/8/5 16:19
1025,JPMAT,,Matusaka,34.61666667,136.5666667,Japan,Feeder Port,Matusaka,0,2024/8/5 16:20
1026,JPMGA,,Matsunaga,34.43333333,133.25,Japan,Feeder Port,Matsunaga,0,2024/8/5 16:20
1027,JPMIH,,Mihara,34.406375,133.1781,Japan,Feeder Port,Mihara,0,2024/8/5 16:20
1028,JPMIK,,Mikawa,34.803585,137.1959,Japan,Feeder Port,Mikawa,0,2024/8/5 16:20
1029,JPMIN,,Minamata,32.2,130.3330556,Japan,Feeder Port,Minamata,0,2024/8/5 16:20
1030,JPMIS,,Misumi,32.61666667,130.4497222,Japan,Feeder Port,Misumi,0,2024/8/5 16:20
1031,JPMIY,,Miyazaki,31.902,131.4387,Japan,Feeder Port,Miyazaki,0,2024/8/5 16:20
1032,JPMIZ,,Mizushima,34.504705,133.7141,Japan,Feeder Port,Mizushima,0,2024/8/5 16:20
1033,JPMKE,,Miike,33.00755,130.40895,Japan,Feeder Port,Miike,0,2024/8/5 16:20
1034,JPMKO,,Miyako,39.64972222,141.9666667,Japan,Feeder Port,Miyako,0,2024/8/5 16:20
1035,JPMMA,,Matsuyama,33.87711,132.71355,Japan,Feeder Port,Matsuyama,0,2024/8/5 16:20
1036,JPMOJ,,Moji,33.95,130.9666667,Japan,Main Port,Kitakyushu,0,2024/8/5 16:20
1037,JPMON,,Monbetsu,44.34365,143.36935,Japan,Feeder Port,Monbetsu,0,2024/8/5 16:20
1038,JPMUR,,Muroran,42.34275,140.96895,Japan,Feeder Port,Muroran,0,2024/8/5 16:20
1039,JPMZU,,Miyazu,35.53305556,135.1997222,Japan,Feeder Port,Miyazu,0,2024/8/5 16:20
1040,JPNAH,,Naha,26.22988,127.6698,Japan,Feeder Port,Naha,0,2024/8/5 16:20
1041,JPNAK,,Nakagusuku,26.2333333,127.833333,Japan,Feeder Port,Nakagusuku,0,2024/8/5 16:20
1042,JPNAN,,Nakanoseki,34,131.5666667,Japan,Feeder Port,Houfu,0,2024/8/5 16:20
1043,JPNAO,,Naoetsu,37.19239,138.2609,Japan,Feeder Port,Naoetsu,0,2024/8/5 16:20
1044,JPNEM,,Nemuro,43.34222,145.5809,Japan,Feeder Port,Nemuro,0,2024/8/5 16:20
1045,JPNGO,,Nagoya,35.046,136.836,Japan,Main Port,Nagoya,0,2024/8/5 16:20
1046,JPNGS,,Nagasaki,32.725265,129.84115,Japan,Feeder Port,Nagasaki,0,2024/8/5 16:20
1047,JPNHI,,Niigata Higashi,38.01666667,139.2166667,Japan,Feeder Port,Niigata Higashi,0,2024/8/5 16:20
1048,JPNIS,,Nishinomiya,34.73333333,135.3333333,Japan,Feeder Port,Nishinomiya,0,2024/8/5 16:20
1049,JPNMA,,Niihama,33.97511,133.2918,Japan,Feeder Port,Niihama,0,2024/8/5 16:20
1050,JPNNO,,Nanao,37.062775,136.9766,Japan,Feeder Port,Nanao,0,2024/8/5 16:20
1051,JPNOS,,Noshiro,40.21666667,140,Japan,Feeder Port,Noshiro,0,2024/8/5 16:20
1052,JPOFU,,Ofunato,39.05,141.733333,Japan,Feeder Port,Ofunato,0,2024/8/5 16:20
1053,JPOGI,,Ogishima,35.466667,139.716667,Japan,Feeder Port,Kawasaki,0,2024/8/5 16:20
1054,JPOIT,,Oita,33.26667,131.6667,Japan,Feeder Port,Oita,0,2024/8/5 16:20
1055,JPOKA,,Okayama,34.616667,133.96667,Japan,Feeder Port,Okayama,0,2024/8/5 16:20
1056,JPOKI,,Okinawa,26.3377,127.8067,Japan,Feeder Port,Okinawa,0,2024/8/5 16:20
1057,JPOMA,,Omaezaki,34.61884,138.21745,Japan,Feeder Port,Omaezaki,0,2024/8/5 16:20
1058,JPONA,,Onahama,36.93068,140.8851,Japan,Feeder Port,Onahama,0,2024/8/5 16:20
1059,JPONO,,Onomichi,34.36666667,133.1830556,Japan,Feeder Port,Onomichi,0,2024/8/5 16:20
1060,JPOSA,,Osaka,34.61406,135.4404,Japan,Main Port,Osaka,0,2024/8/5 16:20
1061,JPOTK,,Otake,34.25,132.22,Japan,Feeder Port,Otake,0,2024/8/5 16:20
1062,JPOTR,,Otaru,43.20055,141.01795,Japan,Feeder Port,Otaru,0,2024/8/5 16:21
1063,JPOWA,,Owase,34.07111,136.21175,Japan,Feeder Port,Owase,0,2024/8/5 16:21
1064,JPRUM,,Rumoi,43.95541,141.63575,Japan,Feeder Port,Rumoi,0,2024/8/5 16:21
1065,JPSAG,,Saganoseki,33.245295,131.87125,Japan,Feeder Port,Saganoseki,0,2024/8/5 16:21
1066,JPSAI,,Saiki,32.97904,131.91565,Japan,Feeder Port,Saiki,0,2024/8/5 16:21
1067,JPSAK,,Sakaiminato,35.522935,133.2639,Japan,Feeder Port,Sakaiminato,0,2024/8/5 16:21
1068,JPSBS,,Shibushi,31.46674,131.1112,Japan,Feeder Port,Shibushi,0,2024/8/5 16:21
1069,JPSDA,,Shimoda,34.668585,138.95615,Japan,Feeder Port,Shimoda,0,2024/8/5 16:21
1070,JPSDE,,Sakaide,34.33777,133.8595,Japan,Feeder Port,Sakaide,0,2024/8/5 16:21
1071,JPSEN,,Sendai,38.276,141.021,Japan,Feeder Port,Sendai,0,2024/8/5 16:21
1072,JPSGA,,Shiogama,38.3185,141.04365,Japan,Feeder Port,Shiogama,0,2024/8/5 16:21
1073,JPSHJ,,Ishikari,36.566665,138.0667,Japan,Feeder Port,Ishikari,0,2024/8/5 16:21
1074,JPSHS,,Shimonoseki,33.937665,130.9238,Japan,Feeder Port,Shimonoseki,0,2024/8/5 16:21
1075,JPSKU,,Sakaisenboku,34.53272,135.41355,Japan,Feeder Port,Takaishi,0,2024/8/5 16:21
1076,JPSMZ,,Shimizu,35.01727,138.50645,Japan,Feeder Port,Shizuoka,0,2024/8/5 16:21
1077,JPSPK,,Sapporo,42.9849944,140.9677924,Japan,Feeder Port,Sapporo,0,2024/8/5 16:21
1078,JPSSB,,Sasebo,33.156,129.714,Japan,Feeder Port,Sasebo,0,2024/8/5 16:21
1079,JPSTA,,Sakata,38.934845,139.8178,Japan,Feeder Port,Sakata,0,2024/8/5 16:21
1080,DEAAH,,Aachen,0,0,Germany,Dry Port,Aachen,1,2024/8/5 16:40
1081,DEABS,,Asbach,0,0,Germany,Dry Port,Asbach,1,2024/8/5 16:40
1082,DEAGB,,Augsburg,48.3705449,10.89779,Germany,Dry Port,Augsburg,0,2024/8/5 16:40
1083,DEALT,,Altona,53.5786,9.8729,Germany,Feeder Port,Hamburg,0,2024/8/5 16:40
1084,DEBFE,,Bielefeld,0,0,Germany,Dry Port,Bielefeld,1,2024/8/5 16:40
1085,DEBOC,,Bochum,51.4818,7.2163,Germany,Dry Port,Bochum,0,2024/8/5 16:40
1086,DEBON,,Bonn,50.73686595,7.104463575,Germany,Feeder Port,Bonn,0,2024/8/5 16:40
1087,DEBOT,,Bottrop,0,0,Germany,Dry Port,Bottrop,1,2024/8/5 16:40
1088,DEBRA,,Brake,53.33867645,8.49316168,Germany,Feeder Port,Brake,0,2024/8/5 16:40
1089,DEBRE,,Bremen,53.0858,8.7918,Germany,Feeder Port,Bremen,0,2024/8/5 16:40
1090,DEBRU,,Brunsbuttel,53.9004,9.1315,Germany,Feeder Port,Brunsbuttel,0,2024/8/5 16:40
1091,DEBRV,,Bremerhaven,53.55088045,8.548875335,Germany,Main Port,Bremerhaven,0,2024/8/5 16:41
1092,DEBUT,,Butzfleth,53.651001,9.504000185,Germany,Feeder Port,Butzfleth,0,2024/8/5 16:41
1093,DECGN,,Koin(Cologne),50.9275,6.976,Germany,Feeder Port,Cologne,0,2024/8/5 16:41
1094,DECHE,,Chemnitz,0,0,Germany,Dry Port,Chemnitz,1,2024/8/5 16:41
1095,DECOB,,Koblenz,50.35027695,7.598548175,Germany,Feeder Port,Koblenz,0,2024/8/5 16:41
1096,DECOT,,Cottbus,0,0,Germany,Dry Port,Cottbus,1,2024/8/5 16:41
1097,DECUX,,Cuxhaven,53.8640003,8.708649635,Germany,Feeder Port,Cuxhaven,0,2024/8/5 16:41
1098,DEDAR,,Darmstadt,49.8707,8.6449,Germany,Dry Port,Darmstadt,0,2024/8/5 16:41
1099,DEDOR,,Dortmund,51.533,7.437,Germany,Dry Port,Dortmund,0,2024/8/5 16:41
1100,DEDRE,,Dresden,51.06486,13.735315,Germany,Feeder Port,Dresden,0,2024/8/5 16:41
1101,DEDUI,,Duisburg,51.4455,6.7475,Germany,Feeder Port,Duisburg,0,2024/8/5 16:41
1102,DEDUS,,Dusseldorf,51.227985,6.746788,Germany,Feeder Port,Dusseldorf,0,2024/8/5 16:41
1103,DEECK,,Eckernforde,54.469,9.8575,Germany,Feeder Port,Eckernforde,0,2024/8/5 16:41
1104,DEEDG,,Eimeldingen,0,0,Germany,Dry Port,Eimeldingen,1,2024/8/5 16:41
1105,DEELS,,Elsfleth,53.235225,8.466,Germany,Feeder Port,Elsfleth,0,2024/8/5 16:41
1106,DEEME,,Emden,53.3475,7.191,Germany,Feeder Port,Emden,0,2024/8/5 16:41
1107,DEERF,,Erfurt,0,0,Germany,Dry Port,Erfurt,1,2024/8/5 16:41
1108,DEESS,,Essen,51.4561,7.01,Germany,Feeder Port,Essen,0,2024/8/5 16:41
1109,DEFLE,,Flensburg,54.7989998,9.438000205,Germany,Feeder Port,Flensburg,0,2024/8/5 16:41
1110,DEFRA,,Frankfurt,50.105875,8.689406,Germany,Dry Port,Frankfurt,0,2024/8/5 16:41
1111,DEGEA,,Gera,0,0,Germany,Dry Port,Gera,1,2024/8/5 16:41
1112,DEGLU,,Gluckstadt,53.792,9.414,Germany,Feeder Port,Gluckstadt,0,2024/8/5 16:41
1113,DEHAI,,Haiger,50.7415,8.2013,Germany,Dry Port,Haiger,0,2024/8/5 16:41
1114,DEHAJ,,Hannover,52.42306,9.66755,Germany,Dry Port,Hannover,0,2024/8/5 16:41
1115,DEHAM,,Hamburg,53.507,9.9619,Germany,Main Port,Hamburg,0,2024/8/5 16:41
1116,DEHEE,,Herne,0,0,Germany,Dry Port,Herne,1,2024/8/5 16:41
1117,DEHEI,,Heidelberg,49.4057072,8.6135747,Germany,Dry Port,Heidelberg,0,2024/8/5 16:41
1118,DEHEN,,Heilbronn,0,0,Germany,Dry Port,Heilbronn,1,2024/8/5 16:41
1119,DEHHF,,Heiligenhafen,54.3745,10.999,Germany,Feeder Port,Heiligenhafen,0,2024/8/5 16:41
1120,DEHID,,Hilden,51.171389,6.939444,Germany,Dry Port,Hilden,0,2024/8/5 16:41
1121,DEHSM,,Husum,54.471,9.0325,Germany,Feeder Port,Husum,0,2024/8/5 16:41
1122,DEING,,Ingolstadt,48.7589,11.4347,Germany,Dry Port,Ingolstadt,0,2024/8/5 16:41
1123,DEITZ,,Itzehoe,53.920635,9.504021,Germany,Feeder Port,Itzehoe,0,2024/8/5 16:41
1124,DEJEN,,Jena,0,0,Germany,Dry Port,Jena,1,2024/8/5 16:41
1125,DEKAP,,Kappeln,54.66,9.936,Germany,Feeder Port,Kappeln,0,2024/8/5 16:41
1126,DEKAR,,Karlsruhe,49.05822,8.3386715,Germany,Feeder Port,Karlsruhe,0,2024/8/5 16:41
1127,DEKEL,,Kiel,54.3355,10.155,Germany,Feeder Port,Kiel,0,2024/8/5 16:41
1128,DEKOR,,Kornwestheim,0,0,Germany,Dry Port,Kornwestheim,1,2024/8/5 16:41
1129,DEKRE,,Krefeld,51.338975,6.667127,Germany,Feeder Port,Krefeld,0,2024/8/5 16:41
1130,DELAB,,Laboe,54.32722222,10.20805556,Germany,,Laboe,0,2024/8/5 16:41
1131,DELBC,,Lubeck,53.89,10.746,Germany,Feeder Port,Lubeck,0,2024/8/5 16:41
1132,DELEI,,Leipzig,51.3389,12.3821,Germany,Dry Port,Leipzig,0,2024/8/5 16:41
1133,DELER,,Leer,53.22,7.451,Germany,Feeder Port,Leer,0,2024/8/5 16:41
1134,DELIU,,Lindau,47.56,9.7,Germany,Dry Port,Lindau,0,2024/8/5 16:41
1135,DELUH,,Ludwigshafen,0,0,Germany,Dry Port,Ludwigshafen,1,2024/8/5 16:41
1136,DELZB,,Salzburg,0,0,Germany,Dry Port,Salzburg,1,2024/8/5 16:41
1137,DEMAI,,Mainz,50.015385,8.262259,Germany,Feeder Port,Mainz,0,2024/8/5 16:41
1138,DEMHM,,Mannheim,49.5005,8.446,Germany,Feeder Port,Mannheim,0,2024/8/5 16:42
1139,DEMUC,,Munich,48.1349,11.5659,Germany,Dry Port,Munich,0,2024/8/5 16:42
1140,DEMUN,,Munster,51.9535,7.65,Germany,Feeder Port,Munster,0,2024/8/5 16:42
1141,DENEU,,Ulm,48.3974,9.9912,Germany,Dry Port,Ulm,0,2024/8/5 16:42
1142,DENHS,,Neuhaus,53.8,9.033333,Germany,Feeder Port,Neuhaus,0,2024/8/5 16:42
1143,DENOR,,Nordenham,53.48305556,8.483055556,Germany,Feeder Port,Nordenham,0,2024/8/5 16:42
1144,DENST,,Neustadt,54.0965,10.8085,Germany,Feeder Port,Neustadt,0,2024/8/5 16:42
1145,DENUE,,Nurnberg,49.4529,11.0775,Germany,Feeder Port,Nurnberg,0,2024/8/5 16:42
1146,DENUS,,Neuss,51.2114,6.7027,Germany,Feeder Port,Neuss,0,2024/8/5 16:42
1147,DEOFF,,Offenbach,50.11,8.7649395,Germany,Dry Port,Offenbach am Main,0,2024/8/5 16:42
1148,DEORT,,Orth,54.45,11.05,Germany,Feeder Port,Fehmarn,0,2024/8/5 16:42
1149,DEPAD,,Paderborn,0,0,Germany,Dry Port,Paderborn,1,2024/8/5 16:42
1150,DEPAP,,Papenburg,53.1,7.366666667,Germany,Dry Port,Papenburg,0,2024/8/5 16:42
1151,DEPAS,,Passau,48.566,13.439,Germany,Dry Port,Passau,0,2024/8/5 16:42
1152,DEPUT,,Puttgarden,54.5,11.21,Germany,Feeder Port,Fehmarn,0,2024/8/5 16:42
1153,DEREG,,Regensburg,49.0215,12.101,Germany,Feeder Port,Regensburg,0,2024/8/5 16:42
1154,DEROS,,Rosenheim,47.8539,12.1269,Germany,Dry Port,Rosenheim,0,2024/8/5 16:42
1155,DERSG,,Rendsburg,54.307,9.6835,Germany,Dry Port,Rendsburg,0,2024/8/5 16:42
1156,DERSK,,Rostock,54.137,12.1165,Germany,Feeder Port,Rostock,0,2024/8/5 16:42
1157,DESLU,,Schulau,53.616667,9.6,Germany,,Pinneberg,0,2024/8/5 16:42
1158,DESOL,,Solingen,51.1703,7.0814,Germany,Dry Port,Solingen,0,2024/8/5 16:42
1159,DESSD,,Stadersand,53.627,9.524,Germany,Feeder Port,Stade,0,2024/8/5 16:42
1160,DESTA,,Stade,53.601,9.48,Germany,Feeder Port,Stade,0,2024/8/5 16:42
1161,DESTR,,Stralsund,54.305,13.1015,Germany,Feeder Port,Stralsund,0,2024/8/5 16:42
1162,DESTU,,Stuttgart,48.76772,9.2545225,Germany,Dry Port,Stuttgart,0,2024/8/5 16:42
1163,DETON,,Tonning,54.3191,8.9432,Germany,Feeder Port,Tonning,0,2024/8/5 16:42
1164,DETRA,,Travemunde,53.948,10.872,Germany,Feeder Port,Lubeck,0,2024/8/5 16:42
1165,DEUEB,,Berlin,52.5144615,13.40553615,Germany,Dry Port,Berlin,0,2024/8/5 16:42
1166,DEVEG,,Vegesack,53.1701,8.6247,Germany,Dry Port,Bremen,0,2024/8/5 16:42
1167,DEWIB,,Wiesbaden,0,0,Germany,Dry Port,Wiesbaden,1,2024/8/5 16:42
1168,DEWIS,,Wismar,53.903,11.45,Germany,Feeder Port,Wismar,0,2024/8/5 16:42
1169,DEWLG,,Wilhelmsburg,53.4923,9.9986,Germany,Feeder Port,Hamburg,0,2024/8/5 16:42
1170,DEWOB,,Wolfsburg,52.423056,10.787222,Germany,Dry Port,Wolfsburg,0,2024/8/5 16:42
1171,DEWVN,,Wilhelmshaven,53.5615,8.1235,Germany,Main Port,Wilhelmshaven,0,2024/8/5 16:42
1172,GACLZ,,Cap Lopez,-0.631872744,8.71911049,Gabon,Feeder Port,Port Gentil,0,2024/8/5 16:42
1173,GAGBA,,Gamba,-2.8737785,9.967688,Gabon,Feeder Port,Gamba,0,2024/8/5 16:42
1174,GALBV,,Libreville,0.398,9.438,Gabon,Feeder Port,Libreville,0,2024/8/5 16:42
1175,GALUT,,Lucina Terminal,-3.666666667,10.66666667,Gabon,Feeder Port,Mayoumba,0,2024/8/5 16:42
1176,GAOWE,,Owendo,0.2865,9.4985,Gabon,Feeder Port,Owendo,0,2024/8/5 16:42
1177,GAPOG,,Port Gentil,-0.7095,8.7905,Gabon,Feeder Port,Port Gentil,0,2024/8/5 16:42
1178,GATCH,,Tchibanga,-2.9366,10.98442,Gabon,Dry Port,Tchibanga,0,2024/8/5 16:42
1179,GDGRE,,Grenada,12.048,-61.7515,Grenada,Feeder Port,Grenada,0,2024/8/5 16:42
1180,GDSTG,,St George's,12.048,-61.7515,Grenada,Feeder Port,St George's,0,2024/8/5 16:42
1181,GEBUS,,Batumi,41.65100095,41.65449905,Georgia,Feeder Port,Batumi,0,2024/8/5 16:42
1182,GEPTI,,Poti,41.656,42.1553,Georgia,Dry Port,Poti,0,2024/8/5 16:42
1183,GESUI,,Sokhumi,42.99703,41.0191,Georgia,Feeder Port,Sokhumi,0,2024/8/5 16:43
1184,GETBS,,Tbilisi,41.7344,44.8352,Georgia,Dry Port,Tbilisi,0,2024/8/5 16:43
1185,GHACC,,Accra,5.53449988,-0.207500003,Ghana,Feeder Port,Accra,0,2024/8/5 16:43
1186,GHAXI,,Axim,4.8669,-2.2381,Ghana,,Axim,0,2024/8/5 16:43
1187,GHCCT,,Cape Coast,5.116666667,-1.266666667,Ghana,Feeder Port,Cape Coast,0,2024/8/5 16:43
1188,GHKMS,,Kumasi,6.93,-1.67,Ghana,Dry Port,Kumasi,0,2024/8/5 16:43
1189,GHSEK,,Sekondi,4.941,-1.697,Ghana,Feeder Port,Sekondi,0,2024/8/5 16:43
1190,GHTEM,,Tema,5.63285,0.0127,Ghana,Main Port,Tema,0,2024/8/5 16:43
1191,GHTKD,,Takoradi,4.884,-1.7395,Ghana,Feeder Port,Takoradi,0,2024/8/5 16:43
